name,address,telephone,url,latitude,longitude,starRating
Hotel Chinzanso Tokyo,"Bunkyo-ku, Sekiguchi 2-10-8, 112-8680, Tokyo",+81339430996,https://www.travelmyth.com/Tokyo/Hotels/Hotel-Chinzanso-Tokyo_tmid231580,35.71151100,139.72596400,5
"Mandarin Oriental, Tokyo","Chuo-ku Nihonbashi Muromachi 2-1-1, 103-8328, Tokyo",+81332708800,https://www.travelmyth.com/Tokyo/Hotels/Mandarin-Oriental-Tokyo_tmid23156,35.68678600,139.77341200,5
The Capitol Hotel Tokyu,"Chiyoda-ku Nagatacho 2-10-3 , 100-0014, Tokyo",+81335030109,https://www.travelmyth.com/Tokyo/Hotels/The-Capitol-Hotel-Tokyu_tmid254942,35.67415800,139.74114200,5
Shangri-La Tokyo,"Chiyoda-ku, Marunouchi Trust Tower Main, 1-8-3 Marunouchi, 100-8283, Tokyo",+81367397888,https://www.travelmyth.com/Tokyo/Hotels/Shangri-La-Tokyo_tmid244785,35.68256400,139.76926800,5
The Peninsula Tokyo,"Chiyoda-ku Yurakucho 1-8-1, 100-0006, Tokyo",+81362702888,https://www.travelmyth.com/Tokyo/Hotels/The-Peninsula-Tokyo_tmid102055,35.67478600,139.76037400,5
"Cerulean Tower Tokyu Hotel, A Pan Pacific Partner Hotel","Shibuya-ku, Sakuragaokacho 26-1, 150-8512, Tokyo",+81334763000,https://www.travelmyth.com/Tokyo/Hotels/Cerulean-Tower-Tokyu-Hotel-A-Pan-Pacific-Partner-Hotel_tmid210333,35.65640600,139.69921700,5
Park Hyatt Tokyo,"Shinjuku-ku, Nishishinjuku 3-7-1-2, 163-1055, Tokyo",+81353221234,https://www.travelmyth.com/Tokyo/Hotels/Park-Hyatt-Tokyo_tmid127405,35.68487100,139.69104700,5
Andaz Tokyo - A Concept by Hyatt,"Minato-ku, Toranomon 1-23-4  , 105-0001, Tokyo",+81368301000,https://www.travelmyth.com/Tokyo/Hotels/Andaz-Tokyo-A-Concept-by-Hyatt_tmid490345,35.66637500,139.74968900,5
The Tokyo Station Hotel,"Chiyoda-ku Marunouchi 1-9-1, 100-0005, Tokyo",+81352201112,https://www.travelmyth.com/Tokyo/Hotels/The-Tokyo-Station-Hotel_tmid24736,35.68145300,139.76598000,5
"The Ritz-Carlton, Tokyo","Minato-ku, Akasaka 9-7-1 Tokyo Midtown, 107-6245",+81334238000,https://www.travelmyth.com/Tokyo/Hotels/The-Ritz-Carlton-Tokyo_tmid133036,35.66605700,139.73117000,5
"The Strings by InterContinental, Tokyo, an IHG Hotel","Minato-ku, Konan 2-16-1 Shinagawa East One Tower 26-32 Floor, 108-8282, Tokyo",+81357831111,https://www.travelmyth.com/Tokyo/Hotels/The-Strings-by-InterContinental-Tokyo-an-IHG-Hotel_tmid193624,35.62773000,139.74039700,5
Grand Hyatt Tokyo,"Minato-ku Roppongi 6-10-3 , 106-0032, Tokyo",+81343331234,https://www.travelmyth.com/Tokyo/Hotels/Grand-Hyatt-Tokyo_tmid351400,35.65983100,139.72821200,5
Four Seasons Hotel Tokyo at Marunouchi,"Chiyoda-ku Pacific Century Place Marunouchi 1-11-1 Marunouchi , 100-6277, Tokyo",+81352227222,https://www.travelmyth.com/Tokyo/Hotels/Four-Seasons-Hotel-Tokyo-at-Marunouchi_tmid270897,35.67793400,139.76717600,5
Grand Nikko Tokyo Daiba,"Minato-ku Daiba 2-6-1 , 135-8701, Tokyo",+81355006711,https://www.travelmyth.com/Tokyo/Hotels/Grand-Nikko-Tokyo-Daiba_tmid239924,35.62522200,139.77152500,5
Four Seasons Hotel Tokyo at Otemachi,"Chiyoda-ku Otemachi 1-2-1, 100-0004, Tokyo",+810368100600,https://www.travelmyth.com/Tokyo/Hotels/Four-Seasons-Hotel-Tokyo-at-Otemachi_tmid3209400,35.68763700,139.76233300,5
Conrad Tokyo,"Minato-ku, Higashi-Shinbashi 1-9-1, 105-7337, Tokyo",+81363888000,https://www.travelmyth.com/Tokyo/Hotels/Conrad-Tokyo_tmid114177,35.66329800,139.76191300,5
Imperial Hotel Tokyo,"Chiyoda-ku Uchisaiwai-cho 1-1-1, 100-8558, Tokyo",+81335041111,https://www.travelmyth.com/Tokyo/Hotels/Imperial-Hotel-Tokyo_tmid319412,35.67212800,139.75891200,5
The Prince Park Tower Tokyo,"Minato-ku, Shiba Koen 4-8-1 , 105-8563, Tokyo",+81354001111,https://www.travelmyth.com/Tokyo/Hotels/The-Prince-Park-Tower-Tokyo_tmid80392,35.65518900,139.74701100,5
Park Hotel Tokyo,"Minato-ku Higashi Shimbashi 1-7-1, 105-7227, Tokyo",+81362521111,https://www.travelmyth.com/Tokyo/Hotels/Park-Hotel-Tokyo_tmid105384,35.66335900,139.75961700,4
Palace Hotel Tokyo,"Chiyoda-ku Marunouchi 1-1-1, 100-0005, Tokyo",+81332115211,https://www.travelmyth.com/Tokyo/Hotels/Palace-Hotel-Tokyo_tmid343968,35.68456800,139.76146200,5
Hilton Tokyo Hotel,"Shinjuku-ku, Nishishinjuku 6-6-2, 160-0023, Tokyo",+81333445111,https://www.travelmyth.com/Tokyo/Hotels/Hilton-Tokyo-Hotel_tmid23336,35.69230900,139.69117100,5
"The Prince Gallery Tokyo Kioicho, a Luxury Collection Hotel","Chiyoda-ku, Kioicho 1-2, 102-8585, Tokyo",+81332341111,https://www.travelmyth.com/Tokyo/Hotels/The-Prince-Gallery-Tokyo-Kioicho-a-Luxury-Collection-Hotel_tmid1285590,35.67942600,139.73633300,5
"ANA InterContinental Tokyo, an IHG Hotel","Minato-ku, Akasaka 1-12-33 , 107-0052, Tokyo",+81335051111,https://www.travelmyth.com/Tokyo/Hotels/ANA-InterContinental-Tokyo-an-IHG-Hotel_tmid241848,35.66818400,139.74091700,5
The Royal Park Hotel Iconic Tokyo Shiodome,"Minato-ku, Higashishimbashi 1-6-3, 105-8333, Tokyo",+81362531111,https://www.travelmyth.com/Tokyo/Hotels/The-Royal-Park-Hotel-Iconic-Tokyo-Shiodome_tmid110100,35.66387500,139.76041700,4
Tokyo Dome Hotel,"Bunkyo-ku, Koraku 1-3-61, 112-8562, Tokyo",+81358052111,https://www.travelmyth.com/Tokyo/Hotels/Tokyo-Dome-Hotel_tmid391562,35.70334200,139.75322500,4
The Gate Hotel Asakusa Kaminarimon by Hulic,"Taito-ku, Kaminarimon 2-16-11, 111-0034, Tokyo",+81358263877,https://www.travelmyth.com/Tokyo/Hotels/The-Gate-Hotel-Asakusa-Kaminarimon-by-Hulic_tmid362684,35.71093700,139.79534700,4
Tobu Hotel Levant Tokyo,"Sumida-ku Kinshi 1-2-2, 130-0013, Tokyo",+81356115511,https://www.travelmyth.com/Tokyo/Hotels/Tobu-Hotel-Levant-Tokyo_tmid356074,35.69679000,139.81086600,4
The Okura Tokyo,"Minato-ku Toranomon 2-10-4, 105-0001, Tokyo",+81335820111,https://www.travelmyth.com/Tokyo/Hotels/The-Okura-Tokyo_tmid2764857,35.66716000,139.74413900,5
Dai-ichi Hotel Tokyo,"Minato-ku Shinbashi 1-2-6, 105-8621, Tokyo",+81335014411,https://www.travelmyth.com/Tokyo/Hotels/Dai-ichi-Hotel-Tokyo_tmid209930,35.66880700,139.75747200,4
Keio Plaza Hotel Tokyo,"Shinjuku-ku, Nishishinjuku 2-2-1, 160-8330, Tokyo",+81353228000,https://www.travelmyth.com/Tokyo/Hotels/Keio-Plaza-Hotel-Tokyo_tmid193046,35.68987500,139.69395200,5
Hotel East 21 Tokyo,"Koto-ku Toyo  6-3-3 , 135-0016, Tokyo",+81356835683,https://www.travelmyth.com/Tokyo/Hotels/Hotel-East-21-Tokyo_tmid145861,35.67464600,139.81492500,4
"The Prince Sakura Tower Tokyo, Autograph Collection","Minato-ku, Takanawa 3-13-1, 108-8612, Tokyo",+81357981111,https://www.travelmyth.com/Tokyo/Hotels/The-Prince-Sakura-Tower-Tokyo-Autograph-Collection_tmid15885,35.63091100,139.73526300,5
Hotel Metropolitan Tokyo Marunouchi,"Chiyoda-ku Marunouchi  1-7-12 , 100-0005, Tokyo",+81332112233,https://www.travelmyth.com/Tokyo/Hotels/Hotel-Metropolitan-Tokyo-Marunouchi_tmid57644,35.68386900,139.76850100,4
The Westin Tokyo,"Meguro-ku, Mita 1-4-1, 153-8580, Tokyo",+81354237000,https://www.travelmyth.com/Tokyo/Hotels/The-Westin-Tokyo_tmid227910,35.64180000,139.71517300,5
Sheraton Miyako Hotel Tokyo,"Minato-ku Shirokanedai 1-1-50, 108-8640, Tokyo",+81334473111,https://www.travelmyth.com/Tokyo/Hotels/Sheraton-Miyako-Hotel-Tokyo_tmid64225,35.63963300,139.73006000,5
Royal Park Hotel,"Chuo-ku Nihonbashi Kakigara-cho 2-1-1, 103-8520, Tokyo",+81336671111,https://www.travelmyth.com/Tokyo/Hotels/Royal-Park-Hotel_tmid57536,35.68227900,139.78645800,4
Odakyu Hotel Century Southern Tower,"Shibuya-ku, Yoyogi 2-2-1, 151-8583, Tokyo",+81353540111,https://www.travelmyth.com/Tokyo/Hotels/Odakyu-Hotel-Century-Southern-Tower_tmid596835,35.68667000,139.70052800,4
"InterContinental Tokyo Bay, an IHG Hotel","Minato-ku Kaigan 1-16-2, 105-8576, Tokyo",+81354042222,https://www.travelmyth.com/Tokyo/Hotels/InterContinental-Tokyo-Bay-an-IHG-Hotel_tmid314070,35.65304400,139.76199300,5
Hotel New Otani Tokyo The Main,"Chiyoda-ku, Kioi-Cho 4-1, 102-8578, Tokyo",+81332651111,https://www.travelmyth.com/Tokyo/Hotels/Hotel-New-Otani-Tokyo-The-Main_tmid249884,35.68089500,139.73357300,5
Sheraton Grande Tokyo Bay Hotel,"Maihama 1-9, 279-0031, Tokyo",+81473555555,https://www.travelmyth.com/Tokyo/Hotels/Sheraton-Grande-Tokyo-Bay-Hotel_tmid203341,35.62726800,139.87726400,5
Ascott Marunouchi Tokyo,"1-1-1, Otemachi Park Building 22F - 29F, 100-0004, Tokyo",+81352082001,https://www.travelmyth.com/Tokyo/Hotels/Ascott-Marunouchi-Tokyo_tmid1898819,35.68690900,139.76283100,5
Asakusa View Hotel,"Taito-ku Nishiasakusa 3-17-1, 111-8765, Tokyo",+81338471111,https://www.travelmyth.com/Tokyo/Hotels/Asakusa-View-Hotel_tmid211177,35.71531100,139.79225200,4
karaksa hotel premier Tokyo Ginza,"Minato-ku, Shinbashi 1-6-6, 105-0004, Tokyo",+81335736602,https://www.travelmyth.com/Tokyo/Hotels/karaksa-hotel-premier-Tokyo-Ginza_tmid2528607,35.66707700,139.76156800,4
Hotel Mystays Premier Akasaka,"Minato-ku, Akasaka 2-17-54, 107-0052, Tokyo",+81362293280,https://www.travelmyth.com/Tokyo/Hotels/Hotel-Mystays-Premier-Akasaka_tmid1299675,35.67024600,139.73837500,4
Grand Prince Hotel Shin Takanawa,"Minato-ku, Takanawa 3-13-1, 108-8612, Tokyo",+81334421111,https://www.travelmyth.com/Tokyo/Hotels/Grand-Prince-Hotel-Shin-Takanawa_tmid110729,35.62955200,139.73289900,4
Shibuya Excel Hotel Tokyu,"Shibuya-ku, Dogenzaka 1-12-2, 150-0043, Tokyo",+81354570109,https://www.travelmyth.com/Tokyo/Hotels/Shibuya-Excel-Hotel-Tokyu_tmid18259,35.65874500,139.69970400,4
"Kimpton Shinjuku Tokyo, an IHG Hotel","Nishishinjuku 3-4-7 , 160-0023, Tokyo",+81357831262,https://www.travelmyth.com/Tokyo/Hotels/Kimpton-Shinjuku-Tokyo-an-IHG-Hotel_tmid3579827,35.68594400,139.69233300,5
Hotel New Otani Tokyo Garden Tower,"Chiyoda-ku Kioicho 4-1, 102-8578, Tokyo",+81332651111,https://www.travelmyth.com/Tokyo/Hotels/Hotel-New-Otani-Tokyo-Garden-Tower_tmid843033,35.67985500,139.73502200,5
Hotel Okura Tokyo Bay,"Maihama 1-8, 279-8585, Tokyo",+81473553333,https://www.travelmyth.com/Tokyo/Hotels/Hotel-Okura-Tokyo-Bay_tmid592049,35.62755300,139.87636000,5
Ginza Creston,"Chuo-ku Akashi-cho 8, 104-0044, Tokyo",+81355505700,https://www.travelmyth.com/Tokyo/Hotels/Ginza-Creston_tmid301708,35.66625700,139.77828800,4
Hilton Tokyo Odaiba,"Minato-ku Daiba  1-9-1 , 135-8625, Tokyo",+81355005500,https://www.travelmyth.com/Tokyo/Hotels/Hilton-Tokyo-Odaiba_tmid196728,35.62652200,139.77057700,5
Hotel Emion Tokyo Bay,"Hinode 1-1-1 , 279-0013, Tokyo",+81473042727,https://www.travelmyth.com/Tokyo/Hotels/Hotel-Emion-Tokyo-Bay_tmid158921,35.64707000,139.92003500,4
Rihga Royal Hotel Tokyo,"Shinjuku-ku Totsuka-machi 1-104-19, 169-8613, Tokyo",+81352851121,https://www.travelmyth.com/Tokyo/Hotels/Rihga-Royal-Hotel-Tokyo_tmid136282,35.71059400,139.72253100,4
Hotel Ryumeikan Tokyo,"Chuo-ku Yaesu 1-3-22, 103-0028, Tokyo",+81332710971,https://www.travelmyth.com/Tokyo/Hotels/Hotel-Ryumeikan-Tokyo_tmid128046,35.68317500,139.77100700,4
"The Tokyo EDITION, Toranomon","Minato-ku Toranomon 4-1-1, 105-0001, Tokyo",+81354221600,https://www.travelmyth.com/Tokyo/Hotels/The-Tokyo-EDITION-Toranomon_tmid3424921,35.66703900,139.74948200,5
Daiwa Roynet Hotel Nishi-Shinjuku PREMIER,"Shinjuku-ku, Nishi-shinjuku 6-12-39, 160-0023, Tokyo",+81359098480,https://www.travelmyth.com/Tokyo/Hotels/Daiwa-Roynet-Hotel-Nishi-Shinjuku-PREMIER_tmid2724760,35.69432800,139.68956200,4
Hyatt Centric Ginza Tokyo,"Chou-Ku Ginza 6-6-7, 104-0061, Tokyo",+81368371234,https://www.travelmyth.com/Tokyo/Hotels/Hyatt-Centric-Ginza-Tokyo_tmid1904305,35.67075400,139.76222600,5
Hotel Gajoen Tokyo,"Meguro Shimomeguro 1-8-1   , 153-0064, Tokyo",+81334914111,https://www.travelmyth.com/Tokyo/Hotels/Hotel-Gajoen-Tokyo_tmid1405725,35.63143400,139.71397300,5
Hotel Grand Arc Hanzomon,"Chiyoda-ku Hayabusa-cho 1-1, 102-0092, Tokyo",+81332880111,https://www.travelmyth.com/Tokyo/Hotels/Hotel-Grand-Arc-Hanzomon_tmid228729,35.68313900,139.74344100,3
Mercure Tokyo Ginza,"Chuo-ku Ginza  2-9-4 , 104-0061, Tokyo",+81343351111,https://www.travelmyth.com/Tokyo/Hotels/Mercure-Tokyo-Ginza_tmid227668,35.67277200,139.76849400,4
Hotel The Celestine Tokyo Shiba,"Minato-ku, Shiba 3-23-1, 105-0014, Tokyo",+81354414111,https://www.travelmyth.com/Tokyo/Hotels/Hotel-The-Celestine-Tokyo-Shiba_tmid219940,35.65073400,139.74924500,4
Shiba Park Hotel,"Minato-ku Shibakoen 1-5-10 , 105-0011, Tokyo",,https://www.travelmyth.com/Tokyo/Hotels/Shiba-Park-Hotel_tmid197738,35.65872200,139.75238100,4
Grand Prince Hotel Takanawa,"Minato-ku, Takanawa 3-13-1, 108-8612, Tokyo",+81334471111,https://www.travelmyth.com/Tokyo/Hotels/Grand-Prince-Hotel-Takanawa_tmid35461,35.63175000,139.73433500,4
MIMARU TOKYO ASAKUSA STATION,"Taito-ku Kaminarimon 2-20-4, 111-0034, Tokyo",+81362317183,https://www.travelmyth.com/Tokyo/Hotels/MIMARU-TOKYO-ASAKUSA-STATION_tmid3966709,35.71026300,139.79760100,4
MIMARU TOKYO GINZA EAST,"Chuo-ku Shintomi 1-4-4, 104-0041, Tokyo",+81362804017,https://www.travelmyth.com/Tokyo/Hotels/MIMARU-TOKYO-GINZA-EAST_tmid3686358,35.67298300,139.77281900,4
Pullman Tokyo Tamachi,"Minato-ku Shibaura 3-1-21, 108-8566, Tokyo",+81364005855,https://www.travelmyth.com/Tokyo/Hotels/Pullman-Tokyo-Tamachi_tmid2795780,35.64571700,139.74902700,5
MIMARU TOKYO HATCHOBORI,"3-8-8 NIhombashi Kayabacho, Chuo-ku, 103-0025, Tokyo",+81366619211,https://www.travelmyth.com/Tokyo/Hotels/MIMARU-TOKYO-HATCHOBORI_tmid2262150,35.67758400,139.77806100,4
Hotel New Otani Tokyo EXECUTIVE HOUSE ZEN,"Chiyoda-ku Kioicho 4-1, 102-8578, Tokyo",+81332651111,https://www.travelmyth.com/Tokyo/Hotels/Hotel-New-Otani-Tokyo-EXECUTIVE-HOUSE-ZEN_tmid1065629,35.68119600,139.73375800,5
Tokyo Marriott Hotel,"Shinagawa-ku Kitashinagawa 4-7-36, 140-0001, Tokyo",+81354883911,https://www.travelmyth.com/Tokyo/Hotels/Tokyo-Marriott-Hotel_tmid418185,35.62187100,139.73675800,4
Hilton Tokyo Bay,"Maihama 1-8, 279-0031, Tokyo",+81473555000,https://www.travelmyth.com/Tokyo/Hotels/Hilton-Tokyo-Bay_tmid202827,35.62794800,139.87365400,5
Hotel Metropolitan Edmont Tokyo,"Chiyoda-ku Iidabashi 3-10-8 , 102-8130, Tokyo",+81332371111,https://www.travelmyth.com/Tokyo/Hotels/Hotel-Metropolitan-Edmont-Tokyo_tmid189373,35.70062700,139.74910100,4
Hotel Asia Center of Japan,"Minato-ku, Akasaka 8-10-32, 107-0052, Tokyo",+81334026111,https://www.travelmyth.com/Tokyo/Hotels/Hotel-Asia-Center-of-Japan_tmid179713,35.67065500,139.72803400,3
Solaria Nishitetsu Hotel Ginza,"Chuo-ku Ginza 4-9-2 , 104-0061, Tokyo",+81367315555,https://www.travelmyth.com/Tokyo/Hotels/Solaria-Nishitetsu-Hotel-Ginza_tmid105978,35.67089100,139.76737200,4
Hotel Monterey Akasaka,"Minato-ku, Akasaka 4-9-24, 107-0052, Tokyo",+81334017111,https://www.travelmyth.com/Tokyo/Hotels/Hotel-Monterey-Akasaka_tmid40866,35.67558400,139.73271200,4
Sotetsu Grand Fresa Tokyo-Bay Ariake,"Koto-ku Ariake  3-6-6, 135-0063, Tokyo",+81368992030,https://www.travelmyth.com/Tokyo/Hotels/Sotetsu-Grand-Fresa-Tokyo-Bay-Ariake_tmid13968,35.63234800,139.78939000,3
MIMARU TOKYO UENO OKACHIMACHI,"Taito-ku Ueno 1-chome, 110-0005, Tokyo",+81358178335,https://www.travelmyth.com/Tokyo/Hotels/MIMARU-TOKYO-UENO-OKACHIMACHI_tmid3864112,35.70660200,139.77162100,4
MIMARU TOKYO UENO EAST,"Taito-ku Higashiueno 4-26-3, 110-0015 , Tokyo",+81358111677,https://www.travelmyth.com/Tokyo/Hotels/MIMARU-TOKYO-UENO-EAST_tmid2720899,35.71463800,139.78012100,4
Tokyo Bay Tokyu Hotel,"Hinode 7-2-3, 279-0013, Tokyo",+81473900109,https://www.travelmyth.com/Tokyo/Hotels/Tokyo-Bay-Tokyu-Hotel_tmid1904289,35.63763700,139.93248500,4
MOXY Tokyo Kinshicho,"Sumida-ku Kotobashi 3-4-2 , 130-0022, Tokyo",+81356248801,https://www.travelmyth.com/Tokyo/Hotels/MOXY-Tokyo-Kinshicho_tmid1903821,35.69356100,139.81327500,4
Hotel Allamanda Aoyama Tokyo,"Minato-ku Kita Aoyama 2-7-13, 107-0061, Tokyo",+81364329074,https://www.travelmyth.com/Tokyo/Hotels/Hotel-Allamanda-Aoyama-Tokyo_tmid1314023,35.67072700,139.71797600,5
Oakwood Premier Tokyo,"Chiyoda-ku, Marunouchi 1-8-2, 100-0005, Tokyo",+81366316800,https://www.travelmyth.com/Tokyo/Hotels/Oakwood-Premier-Tokyo_tmid1088887,35.68202300,139.76935700,5
Hotel Gracery Shinjuku,"Shinjuku-ku Kabukicho 1-19-1, 160-0021, Tokyo",+81368331111,https://www.travelmyth.com/Tokyo/Hotels/Hotel-Gracery-Shinjuku_tmid617815,35.69535700,139.70206500,4
JR Kyushu Hotel Blossom Shinjuku,"Shibuya-ku Yoyogi 2-6-2, 151-0053, Tokyo",+81353338687,https://www.travelmyth.com/Tokyo/Hotels/JR-Kyushu-Hotel-Blossom-Shinjuku_tmid492350,35.68778600,139.69839200,4
Hotel Sunroute Asakusa,"Taito-ku Kaminarimon 1-8-5, 111-0034, Tokyo",+81338471511,https://www.travelmyth.com/Tokyo/Hotels/Hotel-Sunroute-Asakusa_tmid393917,35.71074700,139.79177700,3
Hundred Stay Tokyo Shinjuku,"Shinjuku-ku, Hyakunin-cho 2-27-7, 169-0073, Tokyo",+81368909100,https://www.travelmyth.com/Tokyo/Hotels/Hundred-Stay-Tokyo-Shinjuku_tmid271086,35.70198200,139.69575700,4
Shinagawa Prince Hotel,"Minato-ku, Takanawa 4-10-30, 108-8611, Tokyo",+81334401111,https://www.travelmyth.com/Tokyo/Hotels/Shinagawa-Prince-Hotel_tmid256302,35.62795700,139.73639500,4
Dai-ichi Hotel Ryogoku,"Sumida-ku, Yokoami 1-6-1, 130-0015, Tokyo",+81356115211,https://www.travelmyth.com/Tokyo/Hotels/Dai-ichi-Hotel-Ryogoku_tmid241954,35.69830000,139.79711900,4
Shinjuku Prince Hotel,"Shinjuku-ku, Kabuki-cho 1-30-1, 160-8487, Tokyo",+81332051111,https://www.travelmyth.com/Tokyo/Hotels/Shinjuku-Prince-Hotel_tmid239604,35.69407700,139.70040200,4
Marunouchi Hotel,"Chiyoda-ku Marunouchi  1-6-3 , 100-0005, Tokyo",,https://www.travelmyth.com/Tokyo/Hotels/Marunouchi-Hotel_tmid185176,35.68333700,139.76658000,5
Hyatt Regency Tokyo,"Shinjuku-ku, Nishishinjuku 2-7-2, 160-0023, Tokyo",+81333481234,https://www.travelmyth.com/Tokyo/Hotels/Hyatt-Regency-Tokyo_tmid168702,35.69105600,139.69136300,4
THE KITANO HOTEL TOKYO,"Chiyoda-ku Hirakawacho 2-16-15 , 102-0093, Tokyo",,https://www.travelmyth.com/Tokyo/Hotels/THE-KITANO-HOTEL-TOKYO_tmid37980,35.67915400,139.74108500,5
Hotel Monterey Hanzomon,"Chiyoda-ku Ichiban-cho  23-1 , 102-0082, Tokyo",+81335567111,https://www.travelmyth.com/Tokyo/Hotels/Hotel-Monterey-Hanzomon_tmid2584,35.68669000,139.74195200,4
Shibuya Stream Excel Hotel Tokyu,"Shibuya-ku Shibuya 3-21-3, 150-0002, Tokyo",+81334061090,https://www.travelmyth.com/Tokyo/Hotels/Shibuya-Stream-Excel-Hotel-Tokyu_tmid2722102,35.65706700,139.70300400,4
Comfort Suites Tokyo Bay,"Urayasu-shi Akemi 5-8-18, 279-0014, Tokyo",+81473809211,https://www.travelmyth.com/Tokyo/Hotels/Comfort-Suites-Tokyo-Bay_tmid2719258,35.63842400,139.92735900,3
ibis Styles Tokyo Bay,"Hinode 2-1-1 , 279-0013, Tokyo",+81473816775,https://www.travelmyth.com/Tokyo/Hotels/ibis-Styles-Tokyo-Bay_tmid2527659,35.64906600,139.92177400,3
Hiyori Hotel Maihama,"Higashino 2-25-8, 279-0042, Tokyo",+81473907300,https://www.travelmyth.com/Tokyo/Hotels/Hiyori-Hotel-Maihama_tmid1898838,35.64639900,139.89707300,3
Daiwa Roynet Hotel Ginza PREMIER,"Chuo-ku Ginza 1-13-15, 104-0061, Tokyo",+81351591380,https://www.travelmyth.com/Tokyo/Hotels/Daiwa-Roynet-Hotel-Ginza-PREMIER_tmid1057214,35.67344700,139.76916100,4
Hotel Wing International Premium Tokyo Yotsuya,"Shinjuku-ku Yotsuya3-14-1, 160-0004, Tokyo",+81333562111,https://www.travelmyth.com/Tokyo/Hotels/Hotel-Wing-International-Premium-Tokyo-Yotsuya_tmid515930,35.68805000,139.71839500,3
Oriental Hotel Tokyo Bay,"Mihama 1-8-2, 279-0011, Tokyo",+81473508111,https://www.travelmyth.com/Tokyo/Hotels/Oriental-Hotel-Tokyo-Bay_tmid391559,35.65046900,139.91251500,4
Nishitetsu Inn Shinjuku,"Shinjuku-ku, Nishishinjuku 7-23-2, 160-0023, Tokyo",+81333675454,https://www.travelmyth.com/Tokyo/Hotels/Nishitetsu-Inn-Shinjuku_tmid83804,35.69417100,139.69423900,3
Hyatt Regency Tokyo Bay,"5-8-23 Akemi, 279-0014, Tokyo",+81473051234,https://www.travelmyth.com/Tokyo/Hotels/Hyatt-Regency-Tokyo-Bay_tmid3528840,35.63752100,139.92654600,4
Mitsui Garden Hotel Toyosu Premier - Tokyo,"Koto-ku, Toyosu 2-2-1, 135-0061, Tokyo",+81335343931,https://www.travelmyth.com/Tokyo/Hotels/Mitsui-Garden-Hotel-Toyosu-Premier-Tokyo_tmid3420433,35.65474800,139.79459900,4
MIMARU TOKYO UENO INARICHO,"Taito-ku Higashiueno 5-8-2, 110-0015, Tokyo",+81352464637,https://www.travelmyth.com/Tokyo/Hotels/MIMARU-TOKYO-UENO-INARICHO_tmid2720959,35.71304000,139.78228700,4
NOHGA HOTEL UENO TOKYO,"Taito-ku Higashi-ueno 2-21-10, 110-0015, Tokyo",+81358160211,https://www.travelmyth.com/Tokyo/Hotels/NOHGA-HOTEL-UENO-TOKYO_tmid2720758,35.71026800,139.77832900,4
Mitsui Garden Hotel Prana Tokyo Bay,"Akemi 6-2-1, 279-0014, Tokyo",+81473823331,https://www.travelmyth.com/Tokyo/Hotels/Mitsui-Garden-Hotel-Prana-Tokyo-Bay_tmid1898729,35.63686500,139.92486400,4
Urayasu Brighton Hotel Tokyo Bay,"Mihama 1-9, 279-0011, Tokyo",+81473557777,https://www.travelmyth.com/Tokyo/Hotels/Urayasu-Brighton-Hotel-Tokyo-Bay_tmid1076473,35.64999700,139.91188600,5
Tokyo Bay Maihama Hotel Club Resort,"Maihama 1-7, 279-0031, Tokyo",+81473503590,https://www.travelmyth.com/Tokyo/Hotels/Tokyo-Bay-Maihama-Hotel-Club-Resort_tmid328677,35.62938000,139.87373000,4
Hotel Monterey Ginza,"Chuo-ku Ginza 2-10-2 , 104-0061, Tokyo",+81335447111,https://www.travelmyth.com/Tokyo/Hotels/Hotel-Monterey-Ginza_tmid263657,35.67287800,139.76902700,4
Tokyo Prince Hotel,"Minato-ku, Shibakoen 3-3-1, 105-8560, Tokyo",+81334321111,https://www.travelmyth.com/Tokyo/Hotels/Tokyo-Prince-Hotel_tmid256927,35.65929900,139.74770800,4
Dormy Inn Akihabara,"Chiyoda-ku Sotokanda  4-12-5 , 101-0021, Tokyo",+81352950012,https://www.travelmyth.com/Tokyo/Hotels/Dormy-Inn-Akihabara_tmid188355,35.70271300,139.77328300,3
Hotel Niwa Tokyo,"Chiyoda-ku Kandamisaki-cho 1-1-16 , 101-0061, Tokyo",+81332930028,https://www.travelmyth.com/Tokyo/Hotels/Hotel-Niwa-Tokyo_tmid186902,35.70050300,139.75680100,4
Hotel Metropolitan Tokyo Ikebukuro,"Toshima-ku, Nishi-Ikebukuro 1-6-1, 171-8505, Tokyo",+81339801111,https://www.travelmyth.com/Tokyo/Hotels/Hotel-Metropolitan-Tokyo-Ikebukuro_tmid151166,35.72872500,139.70902000,4
Sotetsu Fresa Inn Higashi Shinjuku,"Shinjuku-ku, Shinjuku 7-27-9, 160-0022, Tokyo",+81368922032,https://www.travelmyth.com/Tokyo/Hotels/Sotetsu-Fresa-Inn-Higashi-Shinjuku_tmid137219,35.69875000,139.70786400,3
Dormy Inn Premium Shibuya-jingumae,"Shibuya-ku Jingumae6-24-4, 150-0001, Tokyo",+81357745489,https://www.travelmyth.com/Tokyo/Hotels/Dormy-Inn-Premium-Shibuya-jingumae_tmid92814,35.66573200,139.70212400,3
Akasaka Excel Hotel Tokyu,"Chiyoda-ku, Nagatacho 2-14-3, 100-0014, Tokyo",+81335802311,https://www.travelmyth.com/Tokyo/Hotels/Akasaka-Excel-Hotel-Tokyu_tmid70781,35.67722400,139.73734400,4
THE KNOT TOKYO Shinjuku,"Shinjuku-ku, Nishishinjuku 4-31-1, 160-0023, Tokyo",+81333756511,https://www.travelmyth.com/Tokyo/Hotels/THE-KNOT-TOKYO-Shinjuku_tmid37511,35.68870100,139.68872400,3
Hotel Monterey Lasoeur Ginza,"Chuo-ku Ginza  1-10-18, 104-0061, Tokyo",+81335627111,https://www.travelmyth.com/Tokyo/Hotels/Hotel-Monterey-Lasoeur-Ginza_tmid24914,35.67406700,139.76953700,4
Hotel JAL City Tokyo Toyosu,"Koto-ku Toyosu 6-4-20, 135-0061, Tokyo",+81359624000,https://www.travelmyth.com/Tokyo/Hotels/Hotel-JAL-City-Tokyo-Toyosu_tmid3527980,35.64719700,139.78674500,4
ibis Styles Tokyo Ginza East,"Chuo-ku Shintomi 1-2-13, 104-0041, Tokyo",+81335551230,https://www.travelmyth.com/Tokyo/Hotels/ibis-Styles-Tokyo-Ginza-East_tmid3014175,35.67364400,139.77331900,3
Tmark City Hotel Tokyo Omori,"Ota-ku Omorihoncho 1-2-10, 143-0011, Tokyo",+81357641810,https://www.travelmyth.com/Tokyo/Hotels/Tmark-City-Hotel-Tokyo-Omori_tmid2629588,35.58704900,139.73612100,4
Miyako City Tokyo Takanawa,"Minato-ku Takanawa 3-19-17, 108-0074, Tokyo",+81332804111,https://www.travelmyth.com/Tokyo/Hotels/Miyako-City-Tokyo-Takanawa_tmid2526648,35.63361500,139.73779900,4
MIMARU TOKYO UENO NORTH,"Taito-ku Ueno 7-14-4, 110-0005, Tokyo",+81358306255,https://www.travelmyth.com/Tokyo/Hotels/MIMARU-TOKYO-UENO-NORTH_tmid1904955,35.71647100,139.78054400,4
Keio Plaza Hotel Tokyo Premier Grand,"Shinjuku-ku, Nishishinjuku 2-2-1, 160-8330, Tokyo",+81353228060,https://www.travelmyth.com/Tokyo/Hotels/Keio-Plaza-Hotel-Tokyo-Premier-Grand_tmid1901585,35.68988300,139.69395900,5
Forest Inn Showakan (Okura Hotels & Resorts),"Showanomori, 196-8601, Akishima",+81425421234,https://www.travelmyth.com/Akishima-Akishima/Hotels/Forest-Inn-Showakan-Okura-Hotels-Resorts_tmid1352705,35.71801300,139.36410500,4
Vessel Inn Ueno Iriya Ekimae,"Taito-ku Iriya 1-25-6, 110-0013, Tokyo",+81356037411,https://www.travelmyth.com/Tokyo/Hotels/Vessel-Inn-Ueno-Iriya-Ekimae_tmid607354,35.72153200,139.78603900,3
Hotel Wing International Ikebukuro,"Toshima-ku, Higashiikebukuro 3-10-7, 170-0013, Tokyo",+81353965555,https://www.travelmyth.com/Tokyo/Hotels/Hotel-Wing-International-Ikebukuro_tmid251285,35.73237400,139.71880100,3
Sotetsu Fresa Inn Nihombashi-Ningyocho,"Chuo-ku Nihonbashi Kakigara-cho 1-15-4, 103-0014, Tokyo",+81356950203,https://www.travelmyth.com/Tokyo/Hotels/Sotetsu-Fresa-Inn-Nihombashi-Ningyocho_tmid251011,35.68335900,139.78237900,3
Shibuya Tokyu REI Hotel,"Shibuya-ku, Shibuya 1-24-10, 150-0002, Tokyo",+81334980109,https://www.travelmyth.com/Tokyo/Hotels/Shibuya-Tokyu-REI-Hotel_tmid226877,35.66019700,139.70212400,3
Mitsui Garden Hotel Ginza Premier,"Chuo-ku Ginza 8-13-1, 104-0061, Tokyo",+81335431131,https://www.travelmyth.com/Tokyo/Hotels/Mitsui-Garden-Hotel-Ginza-Premier_tmid96395,35.66704600,139.76288200,4
Agora Tokyo Ginza,"Chuo-ku Ginza 5-14-7, 104-0061, Tokyo",+81368092238,https://www.travelmyth.com/Tokyo/Hotels/Agora-Tokyo-Ginza_tmid3950829,35.66845300,139.76712600,4
Hotel Keihan Tsukiji Ginza Grande,"Chuo-ku Tsukiji 3-5-4, 104-0045, Tokyo",+81355651001,https://www.travelmyth.com/Tokyo/Hotels/Hotel-Keihan-Tsukiji-Ginza-Grande_tmid2628925,35.66849300,139.77401600,4
Hotel Resol Akihabara,"Chiyoda-ku Kanda Sudacho 2-25, 101-0041, Tokyo",+81332589269,https://www.travelmyth.com/Tokyo/Hotels/Hotel-Resol-Akihabara_tmid2532009,35.69679800,139.77392100,3
ICI HOTEL Asakusabashi,"Taito-ku Asakusabashi 1-26-6, 111-0053, Tokyo",+81338638811,https://www.travelmyth.com/Tokyo/Hotels/ICI-HOTEL-Asakusabashi_tmid2530788,35.69831100,139.78365400,3
Hotel Intergate Tokyo Kyobashi,"Chuo-ku, Kyobashi 3-7-8, 104-0031, Tokyo",+81355242929,https://www.travelmyth.com/Tokyo/Hotels/Hotel-Intergate-Tokyo-Kyobashi_tmid1904493,35.67549000,139.77081900,3
Hotel Musse Ginza Meitetsu,"Chuo-ku Ginza 7-12-9, 104-0061, Tokyo",+81335413535,https://www.travelmyth.com/Tokyo/Hotels/Hotel-Musse-Ginza-Meitetsu_tmid1903414,35.66779100,139.76359800,4
The Millennials Shibuya,"Shibuya-ku Jinnan 1-20-13, 150-0041, Tokyo",+81368249410,https://www.travelmyth.com/Tokyo/Hotels/The-Millennials-Shibuya_tmid1902771,35.66223200,139.69970900,2
The Share Hotels Lyuro Tokyo Kiyosumi,"1-1-7 Kiyosumi, Koto-ku, 135-0024, Tokyo",+81364585540,https://www.travelmyth.com/Tokyo/Hotels/The-Share-Hotels-Lyuro-Tokyo-Kiyosumi_tmid1898797,35.68105200,139.79195000,3
B:CONTE Asakusa,"Taito-ku Asakusa 2-4-2, 111-0032, Tokyo",+81358275622,https://www.travelmyth.com/Tokyo/Hotels/B:CONTE-Asakusa_tmid593073,35.71325700,139.79415600,3
Roppongi Hotel S,"Minato-ku, Nishiazabu 1-11-6, 106-0031, Tokyo",+81357712469,https://www.travelmyth.com/Tokyo/Hotels/Roppongi-Hotel-S_tmid320438,35.66036400,139.72467400,4
Sotetsu Fresa Inn Nihombashi Kayabacho,"Chuo-ku Nihonbashi Kayaba-cho 1-3-10, 103-0025, Tokyo",+81336682500,https://www.travelmyth.com/Tokyo/Hotels/Sotetsu-Fresa-Inn-Nihombashi-Kayabacho_tmid149983,35.68078500,139.77995000,3
HOTEL MYSTAYS Kiyosumi Shirakawa,"Koto-ku Tokiwa  1-12-16 , 135-0006, Tokyo",+81356242641,https://www.travelmyth.com/Tokyo/Hotels/HOTEL-MYSTAYS-Kiyosumi-Shirakawa_tmid140311,35.68443300,139.79595500,3
Akihabara Washington Hotel,"Chiyoda-ku Kanda Sakuma-cho 1-8-3, 101-0025, Tokyo",+81332553311,https://www.travelmyth.com/Tokyo/Hotels/Akihabara-Washington-Hotel_tmid85633,35.69747700,139.77373500,3
Comfort Inn Tokyo Roppongi,"Minato-ku Roppongi 3-9-8 , 106-0032, Tokyo",+81354112211,https://www.travelmyth.com/Tokyo/Hotels/Comfort-Inn-Tokyo-Roppongi_tmid73455,35.66370100,139.73369500,3
Mitsui Garden Hotel Jingugaien Tokyo Premier,"Shinjuku-ku Kasumigaoka-cho 11-3, 160-0013, Tokyo",+81357861531,https://www.travelmyth.com/Tokyo/Hotels/Mitsui-Garden-Hotel-Jingugaien-Tokyo-Premier_tmid3138167,35.67997600,139.71596500,4
DDD HOTEL,"Chuo-ku Nihonbashi Bakuracho 2-2-1, 103-0002, Tokyo",+81336680840,https://www.travelmyth.com/Tokyo/Hotels/DDD-HOTEL_tmid2766211,35.69527300,139.78345700,3
Best Western Hotel Fino Tokyo Akihabara,"Taito-ku, Ueno 5-1-6, 110-0005, Tokyo",+81358163151,https://www.travelmyth.com/Tokyo/Hotels/Best-Western-Hotel-Fino-Tokyo-Akihabara_tmid2723407,35.70321600,139.77551300,3
THE BLOSSOM HIBIYA,"Shinbashi 1-1-13, 105-0004, Tokyo",+81335918702,https://www.travelmyth.com/Tokyo/Hotels/THE-BLOSSOM-HIBIYA_tmid2709317,35.66878600,139.75672100,4
Mitsui Garden Hotel Ginza-gochome,"Chuo-ku Ginza 5-13-15, 104-0061, Tokyo",+81362265131,https://www.travelmyth.com/Tokyo/Hotels/Mitsui-Garden-Hotel-Ginza-gochome_tmid2707099,35.66885200,139.76665400,4
MIMARU TOKYO NIHOMBASHI SUITENGUMAE,"chuo-ku Nihombashi Hakozakicho 17-6, 103-0015, Tokyo",+81362311383,https://www.travelmyth.com/Tokyo/Hotels/MIMARU-TOKYO-NIHOMBASHI-SUITENGUMAE_tmid2629048,35.68043000,139.78603800,4
Hotel Ann Asakusa,"Taito-ku Nishiasakusa 2-10-6, 111-0035, Tokyo",+81352464407,https://www.travelmyth.com/Tokyo/Hotels/Hotel-Ann-Asakusa_tmid2215725,35.71264000,139.79062000,3
Henn na Hotel Tokyo Akasaka,"Minato-ku Akasaka 2-6-14, 107-0052, Tokyo",+815058943782,https://www.travelmyth.com/Tokyo/Hotels/Henn-na-Hotel-Tokyo-Akasaka_tmid1904281,35.67211200,139.73909700,3
Comfort Hotel Tokyo Higashi Kanda,"Chiyoda-ku Higashi-Kanda 1-9-10, 101-0031, Tokyo",+81338652611,https://www.travelmyth.com/Tokyo/Hotels/Comfort-Hotel-Tokyo-Higashi-Kanda_tmid1900248,35.69451300,139.77983700,3
Henn na Hotel Maihama Tokyo Bay,"Chiba, Urayasu, Fujimi 5-3-20, 279-0043, Tokyo",+81473162828,https://www.travelmyth.com/Tokyo/Hotels/Henn-na-Hotel-Maihama-Tokyo-Bay_tmid1898902,35.64482100,139.88751900,3
Tokyo Bay Maihama Hotel,"Maihama 1-34, 279-0031, Tokyo",+81473558222,https://www.travelmyth.com/Tokyo/Hotels/Tokyo-Bay-Maihama-Hotel_tmid1310011,35.63099100,139.87307000,4
Tokyu Stay Ginza,"Chuo-ku Ginza 4-10-5, 104-0061, Tokyo",+81335410109,https://www.travelmyth.com/Tokyo/Hotels/Tokyu-Stay-Ginza_tmid1233482,35.67051700,139.76724600,3
Richmond Hotel Premier Asakusa International,"Taito-ku Asakusa 2-6-7, 111-0032, Tokyo",+81358063155,https://www.travelmyth.com/Tokyo/Hotels/Richmond-Hotel-Premier-Asakusa-International_tmid1061551,35.71395500,139.79379400,3
Red Planet Tokyo Asakusa,"Taito-ku, Asakusa 1-11-6, 111-0032, Tokyo",+81358280177,https://www.travelmyth.com/Tokyo/Hotels/Red-Planet-Tokyo-Asakusa_tmid934603,35.71222000,139.79240000,3
Hotel Sunroute Ginza,"Chuo-ku Ginza 1-15-11, 104-0061, Tokyo",+810355799733,https://www.travelmyth.com/Tokyo/Hotels/Hotel-Sunroute-Ginza_tmid876603,35.67358100,139.76980000,3
Daiwa Roynet Hotel Tokyo Akabane,"Kita-ku, Akabane Minami 1-9-13, 115-0044, Tokyo",+81352494055,https://www.travelmyth.com/Tokyo/Hotels/Daiwa-Roynet-Hotel-Tokyo-Akabane_tmid579129,35.77758000,139.72251400,3
Sotetsu Fresa Inn Shimbashi-Karasumoriguchi,"Shinbashi Minato 4-10-2 , 105-0004, Tokyo",+81366950203,https://www.travelmyth.com/Tokyo/Hotels/Sotetsu-Fresa-Inn-Shimbashi-Karasumoriguchi_tmid538702,35.66481800,139.75621800,3
Sotetsu Fresa Inn Tokyo Kamata,"Ota-ku, Kamata 5-19-12, 144-0052, Tokyo",+81357140303,https://www.travelmyth.com/Tokyo/Hotels/Sotetsu-Fresa-Inn-Tokyo-Kamata_tmid340859,35.56215900,139.71827600,3
Citadines Shinjuku Tokyo,"Shinjuku-ku, Shinjuku 1-28-13 , 160-0022, Tokyo",+81353797208,https://www.travelmyth.com/Tokyo/Hotels/Citadines-Shinjuku-Tokyo_tmid196078,35.69108600,139.71322600,4
Tokyu Stay Shibuya,"Shibuya-ku Shinsencho 8-14, 150-0045, Tokyo",+81334771091,https://www.travelmyth.com/Tokyo/Hotels/Tokyu-Stay-Shibuya_tmid180889,35.65562700,139.69365400,3
Hotel Sunroute Plaza Shinjuku,"Shibuya-ku, Yoyogi 2-3-1, 151-0053, Tokyo",+81333753211,https://www.travelmyth.com/Tokyo/Hotels/Hotel-Sunroute-Plaza-Shinjuku_tmid169829,35.68711900,139.69910100,4
Sotetsu Fresa Inn Tokyo-Kyobashi,"Chuo-ku Kyobashi 2-11-1, 104-0031, Tokyo",+81352502031,https://www.travelmyth.com/Tokyo/Hotels/Sotetsu-Fresa-Inn-Tokyo-Kyobashi_tmid155038,35.67648500,139.77181700,3
Hotel Keihan Asakusa,"Taito-ku, Asakusa 2-12-4, 111-0032, Tokyo",+8135830321,https://www.travelmyth.com/Tokyo/Hotels/Hotel-Keihan-Asakusa_tmid149525,35.71498800,139.79273700,3
Hotel Trusty Tokyo Bayside,"Koto-ku Ariake  3-1-15 , 135-0063, Tokyo",+81367000001,https://www.travelmyth.com/Tokyo/Hotels/Hotel-Trusty-Tokyo-Bayside_tmid141689,35.62891200,139.78723900,4
Hotel Gracery Ginza,"Chuo-ku Ginza  7-10-1, 104-0061, Tokyo",+81366861000,https://www.travelmyth.com/Tokyo/Hotels/Hotel-Gracery-Ginza_tmid112737,35.66898800,139.76349300,4
Tokyu Stay Tsukiji,"Chuo-ku Tsukiji 4-11-5, 104-0045, Tokyo",+81355510109,https://www.travelmyth.com/Tokyo/Hotels/Tokyu-Stay-Tsukiji_tmid96780,35.66573600,139.77093600,3
Hotel Gracery Tokyo Tamachi,"Minato-ku, Shibaura 3-8-1, 108-0023, Tokyo",+81366991000,https://www.travelmyth.com/Tokyo/Hotels/Hotel-Gracery-Tokyo-Tamachi_tmid84808,35.64361400,139.75090000,3
remm Akihabara,"Chiyoda-ku Kanda Sakumacho  1-6-5 , 101-0025, Tokyo",+81332540606,https://www.travelmyth.com/Tokyo/Hotels/remm-Akihabara_tmid26023,35.69775200,139.77369600,3
Mitsui Garden Hotel Shiodome Italia-gai - Tokyo,"Minato-ku, Higashishinbashi 2-14-24, 105-0021, Tokyo",+81334311131,https://www.travelmyth.com/Tokyo/Hotels/Mitsui-Garden-Hotel-Shiodome-Italia-gai-Tokyo_tmid20271,35.66023500,139.75685200,4
SORANO Hotel,"W1 3-1 Midorimachi, 190-0014, Tachikawa",+81425407777,https://www.travelmyth.com/Tachikawa-Tachikawa/Hotels/SORANO-Hotel_tmid4531890,35.70268300,139.41115900,3
Hotel K5,"Chuo-Ku Nihonbashikabuto-Cho3-5, 103-0026, Tokyo",+81359623485,https://www.travelmyth.com/Tokyo/Hotels/Hotel-K5_tmid3421035,35.68295800,139.77816400,4
Onyado Nono Asakusa Natural Hot Spring,"Taito-ku Asakusa 2-7-20, 111-0032, Tokyo",+81358300510,https://www.travelmyth.com/Tokyo/Hotels/Onyado-Nono-Asakusa-Natural-Hot-Spring_tmid3143838,35.71483800,139.79476600,4
MIMARU TOKYO SHINJUKU WEST,"Shinjuku-ku, Nishi-Shinjuku 3-3-11, 160-0023, Tokyo",+81362581512,https://www.travelmyth.com/Tokyo/Hotels/MIMARU-TOKYO-SHINJUKU-WEST_tmid3040001,35.68591600,139.69303800,4
Mitsui Garden Hotel Roppongi Tokyo Premier,"Minato-ku Roppongi 3-15-17, 106-0032, Tokyo",+81355451431,https://www.travelmyth.com/Tokyo/Hotels/Mitsui-Garden-Hotel-Roppongi-Tokyo-Premier_tmid3008505,35.66190300,139.73593300,5
TSUKI Tokyo,"Chuo-ku Tsukiji 1-9-4, 104-0045, Tokyo",+81364356288,https://www.travelmyth.com/Tokyo/Hotels/TSUKI-Tokyo_tmid2801123,35.66925200,139.77166100,4
Sotetsu Fresa Inn Ueno-Okachimachi,"Taito-ku Ueno 1-20-8, 110-0005, Tokyo",+81366952031,https://www.travelmyth.com/Tokyo/Hotels/Sotetsu-Fresa-Inn-Ueno-Okachimachi_tmid1901912,35.70793600,139.77248100,3
Nihon Seinenkan Hotel,"Shinjuku-ku Kasumigaoka-machi 4-1, 160-0013, Tokyo",+81334010101,https://www.travelmyth.com/Tokyo/Hotels/Nihon-Seinenkan-Hotel_tmid1900793,35.67392700,139.71569900,3
Dormy Inn Ueno Okachimachi,"Taito-ku Ueno 6-7-22, 110-0005, Tokyo",+81358075489,https://www.travelmyth.com/Tokyo/Hotels/Dormy-Inn-Ueno-Okachimachi_tmid943013,35.70902500,139.77619300,3
Keio Presso Inn Ikebukuro,"Toshima-ku, Minami-Ikebukuro 2-29-11, 171-0022, Tokyo",,https://www.travelmyth.com/Tokyo/Hotels/Keio-Presso-Inn-Ikebukuro_tmid617114,35.72789300,139.71562200,3
Hotel Emisia Tokyo Tachikawa,"Akebono-cho 2-14-16, 190-0012, Tachikawa",+81425251121,https://www.travelmyth.com/Tachikawa-Tachikawa/Hotels/Hotel-Emisia-Tokyo-Tachikawa_tmid615687,35.70006800,139.41561700,3
Millennium Mitsui Garden Hotel Tokyo - Ginza,"Chuo-ku Ginza 5-11-1, 104-0061, Tokyo",+81335493331,https://www.travelmyth.com/Tokyo/Hotels/Millennium-Mitsui-Garden-Hotel-Tokyo-Ginza_tmid559957,35.66983700,139.76606000,4
The Royal Park Hotel Tokyo Haneda Airport Terminal 3,"Ota-ku Haneda Airport 2-6-5, 144-0041, Tokyo",+81368301111,https://www.travelmyth.com/Tokyo/Hotels/The-Royal-Park-Hotel-Tokyo-Haneda-Airport-Terminal-3_tmid554121,35.54655200,139.76792800,4
Comfort Hotel Tokyo Kiyosumi Shirakawa,"Koto-ku Shirakawa 1-6-12, 135-0021, Tokyo",+81356399311,https://www.travelmyth.com/Tokyo/Hotels/Comfort-Hotel-Tokyo-Kiyosumi-Shirakawa_tmid350508,35.68222000,139.79967400,3
Sotetsu Fresa Inn Tokyo Tamachi,"Minato-ku Shibaura 3-14-21, 108-0023, Tokyo",+81354422031,https://www.travelmyth.com/Tokyo/Hotels/Sotetsu-Fresa-Inn-Tokyo-Tamachi_tmid276962,35.64278700,139.74783600,3
Sotetsu Fresa Inn Tokyo-Akasaka,"Minato-ku, Akasaka 6-3-17, 107-0052, Tokyo",+81355732031,https://www.travelmyth.com/Tokyo/Hotels/Sotetsu-Fresa-Inn-Tokyo-Akasaka_tmid263045,35.67124000,139.73545700,3
Tokyu Stay Aoyama Premier,"Minato-ku, Minamiaoyama 2-27-18, 107-0062, Tokyo",+81334970109,https://www.travelmyth.com/Tokyo/Hotels/Tokyu-Stay-Aoyama-Premier_tmid255563,35.66878500,139.71676100,4
Tokyu Stay Gotanda,"Shinagawa-ku, Higashigotanda 1-12-2, 141-0022, Tokyo",+81332800109,https://www.travelmyth.com/Tokyo/Hotels/Tokyu-Stay-Gotanda_tmid213092,35.62712000,139.72474300,3
the b akasaka-mitsuke,"Minato-ku, Akasaka 3-21-7 , 107-0052, Tokyo",+81335893610,https://www.travelmyth.com/Tokyo/Hotels/the-b-akasaka-mitsuke_tmid193379,35.67651700,139.73604100,3
HOTEL MYSTAYS Asakusabashi,"Taito-ku Asakusabashi 1-5-5 , 111-0053, Tokyo",+81368580600,https://www.travelmyth.com/Tokyo/Hotels/HOTEL-MYSTAYS-Asakusabashi_tmid161377,35.69712600,139.78347900,3
Daiwa Roynet Hotel Tokyo Osaki,"Shinagawa-ku, Osaki 2-1-3 , 141-0032, Tokyo",+81354965055,https://www.travelmyth.com/Tokyo/Hotels/Daiwa-Roynet-Hotel-Tokyo-Osaki_tmid105223,35.61824300,139.72662400,3
Dai-ichi Hotel Tokyo Seafort,"Shinagawa-ku Higashi-shinagawa 2-3-15, 140-0002, Tokyo",+81354604411,https://www.travelmyth.com/Tokyo/Hotels/Dai-ichi-Hotel-Tokyo-Seafort_tmid103313,35.62406000,139.75137000,4
the b ochanomizu,"Chiyoda-ku Kanda Awajicho 1-7-5, 101-0063, Tokyo",+81332542888,https://www.travelmyth.com/Tokyo/Hotels/the-b-ochanomizu_tmid94989,35.69573000,139.76642400,3
Richmond Hotel Asakusa,"Taito-ku, Asakusa 2-7-10, 111-0032, Tokyo",+81358060255,https://www.travelmyth.com/Tokyo/Hotels/Richmond-Hotel-Asakusa_tmid40977,35.71417000,139.79430400,3
Henn na Hotel Tokyo Asakusa Tawaramachi,"Taito-ku Kotobuki 3-19-8, 111-0042, Tokyo",+815052105250,https://www.travelmyth.com/Tokyo/Hotels/Henn-na-Hotel-Tokyo-Asakusa-Tawaramachi_tmid3528560,35.70816700,139.79138800,3
Hotel Wing International Shimbashi Onarimon,"6-20-8 Shimbashi, Minato-ku, 105-0004, Tokyo",+81334330122,https://www.travelmyth.com/Tokyo/Hotels/Hotel-Wing-International-Shimbashi-Onarimon_tmid2824474,35.66083200,139.75424300,3
Mitsui Garden Hotel Nihonbashi Premier,"Chuo-ku, Nihonbashi Muromachi 3-4-4, 103-0022, Tokyo",+81332701131,https://www.travelmyth.com/Tokyo/Hotels/Mitsui-Garden-Hotel-Nihonbashi-Premier_tmid2214341,35.68842900,139.77319400,4
Act Hotel Roppongi,"Minato-ku Roppongi 7-17-15, 106-0032, Tokyo",+81364350777,https://www.travelmyth.com/Tokyo/Hotels/Act-Hotel-Roppongi_tmid1908082,35.66238500,139.72947100,4
Four Seasons Hotel George V Paris,"31, Avenue George V, 75008, Paris",+33149527000,https://www.travelmyth.com/Paris/Hotels/Four-Seasons-Hotel-George-V-Paris_tmid387381,48.86875500,2.30088700,5
La Maison Favart,"5, Rue Marivaux, 75002, Paris",+33142975983,https://www.travelmyth.com/Paris/Hotels/La-Maison-Favart_tmid233466,48.87077700,2.33733500,4
Le Meurice – Dorchester Collection,"228, Rue De Rivoli, 75001, Paris",+33144581010,https://www.travelmyth.com/Paris/Hotels/Le-Meurice-–-Dorchester-Collection_tmid216443,48.86510800,2.32804700,5
Le Burgundy Paris,"6-8 Rue Duphot, 75001, Paris",+330142603412,https://www.travelmyth.com/Paris/Hotels/Le-Burgundy-Paris_tmid113107,48.86790800,2.32569000,5
Hôtel Le Royal Monceau Raffles Paris,"37 Avenue Hoche, 75008, Paris",+330142998800,https://www.travelmyth.com/Paris/Hotels/Hotel-Le-Royal-Monceau-Raffles-Paris_tmid88399,48.87590200,2.30044400,5
Shangri-La Paris,"10 Avenue D'Iena, 75016, Paris",+33153671998,https://www.travelmyth.com/Paris/Hotels/Shangri-La-Paris_tmid21396,48.86397000,2.29329700,5
Hôtel Plaza Athénée - Dorchester Collection,"25 Avenue Montaigne, 75008, Paris",+33153676665,https://www.travelmyth.com/Paris/Hotels/Hotel-Plaza-Athenee-Dorchester-Collection_tmid482226,48.86617900,2.30428400,5
Le Pavillon de la Reine & Spa,"28 place des Vosges, 75003, Paris",+33140291919,https://www.travelmyth.com/Paris/Hotels/Le-Pavillon-de-la-Reine-Spa_tmid131910,48.85646400,2.36613000,5
Hôtel Keppler,"10 Rue Kepler, 75016, Paris",+33147206505,https://www.travelmyth.com/Paris/Hotels/Hotel-Keppler_tmid97637,48.86986100,2.29727100,4
Hotel Lutetia,"45 Boulevard Raspail, 75006, Paris",+33149544646,https://www.travelmyth.com/Paris/Hotels/Hotel-Lutetia_tmid1701298,48.85124400,2.32723800,5
Hôtel Elysia by Inwood Hotels,"35 Rue De Berri, 75008, Paris",+33153532020,https://www.travelmyth.com/Paris/Hotels/Hotel-Elysia-by-Inwood-Hotels_tmid217883,48.87366200,2.30625600,5
Hotel Marignan Champs-Elysées,"12 rue de Marignan, 75008, Paris",+33140763456,https://www.travelmyth.com/Paris/Hotels/Hotel-Marignan-Champs-Elysees_tmid92664,48.86850800,2.30651700,5
Le Bristol Paris - an Oetker Collection Hotel,"112 rue du Faubourg Saint Honore, 75008, Paris",+33153434275,https://www.travelmyth.com/Paris/Hotels/Le-Bristol-Paris-an-Oetker-Collection-Hotel_tmid1314195,48.87182800,2.31499900,5
"Maison Souquet, Hotel & Spa","10 rue de Bruxelles, 75009, Paris",+33148785555,https://www.travelmyth.com/Paris/Hotels/Maison-Souquet-Hotel-Spa_tmid850094,48.88364100,2.33143100,5
Nuage,"30 Rue Jean Mermoz, 75008, Paris",+33142257530,https://www.travelmyth.com/Paris/Hotels/Nuage_tmid137595,48.87152200,2.31215300,4
Secret de Paris - Hotel & Spa,"2 Rue De Parme, 75009, Paris",+33153163333,https://www.travelmyth.com/Paris/Hotels/Secret-de-Paris-Hotel-Spa_tmid258234,48.88135400,2.32828300,4
Le Relais Montmartre,"6 Rue Constance, 75018, Paris",+33170642525,https://www.travelmyth.com/Paris/Hotels/Le-Relais-Montmartre_tmid219294,48.88538400,2.33354500,4
Les Jardins De La Villa,"5 Rue Belidor, 75017, Paris",+33153810110,https://www.travelmyth.com/Paris/Hotels/Les-Jardins-De-La-Villa_tmid106101,48.87972000,2.28609600,4
Saint James Paris,"5 place du Chancelier Adenauer, 75016, Paris",+33144058181,https://www.travelmyth.com/Paris/Hotels/Saint-James-Paris_tmid65990,48.87058700,2.27966700,5
B Montmartre,"6 Rue Lecluse, 75017, Paris",+33142933577,https://www.travelmyth.com/Paris/Hotels/B-Montmartre_tmid40369,48.88361100,2.32573600,4
Hotel Le Mareuil,"51, Rue de Malte, 75011, Paris",+33147007876,https://www.travelmyth.com/Paris/Hotels/Hotel-Le-Mareuil_tmid39829,48.86600600,2.36749100,4
Park Hyatt Paris - Vendôme,"5 rue de la Paix, 75002, Paris",+33158711234,https://www.travelmyth.com/Paris/Hotels/Park-Hyatt-Paris-Vendome_tmid305106,48.86877700,2.33057200,5
Grand Hôtel Du Palais Royal,"4 Rue De Valois, 75001, Paris",+33142967214,https://www.travelmyth.com/Paris/Hotels/Grand-Hotel-Du-Palais-Royal_tmid268070,48.86325300,2.33785700,5
"InterContinental Paris Le Grand, an IHG Hotel","2 Rue Scribe, 75009, Paris",+33140073232,https://www.travelmyth.com/Paris/Hotels/InterContinental-Paris-Le-Grand-an-IHG-Hotel_tmid258784,48.87062300,2.32988100,5
Hotel de Nell,"7/9 rue du Conservatoire, 75009, Paris",+330147702530,https://www.travelmyth.com/Paris/Hotels/Hotel-de-Nell_tmid236158,48.87314700,2.34682600,5
Hotel The Peninsula Paris,"19 avenue Kleber, 75116, Paris",+33158122888,https://www.travelmyth.com/Paris/Hotels/Hotel-The-Peninsula-Paris_tmid554546,48.87105500,2.29328800,5
La Clef Louvre Paris by The Crest Collection,"8 Rue De Richelieu, 75001, Paris",+33155352800,https://www.travelmyth.com/Paris/Hotels/La-Clef-Louvre-Paris-by-The-Crest-Collection_tmid269704,48.86400300,2.33602900,5
Hôtel Artus,"34 Rue de Buci, 75006, Paris",+330143290720,https://www.travelmyth.com/Paris/Hotels/Hotel-Artus_tmid150057,48.85346300,2.33605900,4
La Villa Maillot,"143 Avenue De Malakoff, 75016, Paris",+33153645252,https://www.travelmyth.com/Paris/Hotels/La-Villa-Maillot_tmid49094,48.87551800,2.28373400,4
Hotel de Crillon,"10 Place de la Concorde, 75008, Paris",,https://www.travelmyth.com/Paris/Hotels/Hotel-de-Crillon_tmid1699697,48.86706700,2.32139900,5
Le 123 Sébastopol - Astotel,"123, boulevard Sebastopol, 75002, Paris",+33140396123,https://www.travelmyth.com/Paris/Hotels/Le-123-Sebastopol-Astotel_tmid358566,48.86761700,2.35307600,4
Hotel Le Six,"14 Rue Stanislas, 75006, Paris",+330142220075,https://www.travelmyth.com/Paris/Hotels/Hotel-Le-Six_tmid32268,48.84376500,2.32817800,4
"Mandarin Oriental, Paris","251 rue Saint-Honore, 75001, Paris",+33170987888,https://www.travelmyth.com/Paris/Hotels/Mandarin-Oriental-Paris_tmid603075,48.86708500,2.32724800,5
Le Relais Madeleine,"11bis Rue Godot de Mauroy, 75009, Paris",+330147422240,https://www.travelmyth.com/Paris/Hotels/Le-Relais-Madeleine_tmid114388,48.87107300,2.32689700,4
Les Rives de Notre-Dame,"15, Quai Saint-Michel, 75005, Paris",+33143548116,https://www.travelmyth.com/Paris/Hotels/Les-Rives-de-Notre-Dame_tmid79329,48.85329600,2.34575800,4
Relais Christine,"3, Rue Christine, 75006, Paris",+33140516080,https://www.travelmyth.com/Paris/Hotels/Relais-Christine_tmid51441,48.85440900,2.34008500,5
Le Pradey,"5 Rue Saint Roch, 75001, Paris",+33142603170,https://www.travelmyth.com/Paris/Hotels/Le-Pradey_tmid239627,48.86443600,2.33160500,4
Relais Saint Jacques,"3 Rue Abbe De L' Epee, 75005, Paris",+330153732600,https://www.travelmyth.com/Paris/Hotels/Relais-Saint-Jacques_tmid18264,48.84306700,2.34230900,4
Le Narcisse Blanc,"19 Boulevard De La Tour Maubourg, 75007, Paris",+33140604432,https://www.travelmyth.com/Paris/Hotels/Le-Narcisse-Blanc_tmid1265023,48.86047400,2.31034600,5
Seven Hotel,"20 rue Berthollet, 75005, Paris",+33143314752,https://www.travelmyth.com/Paris/Hotels/Seven-Hotel_tmid97004,48.83900600,2.34572700,4
Le Général Hôtel,"5-7 rue Rampon, 75011, Paris",+33147004157,https://www.travelmyth.com/Paris/Hotels/Le-General-Hotel_tmid96971,48.86611900,2.36692100,4
Sofitel Le Scribe Paris Opera,"1 Rue Scribe, 75009, Paris",+33144712425,https://www.travelmyth.com/Paris/Hotels/Sofitel-Le-Scribe-Paris-Opera_tmid38647,48.87063000,2.32981500,5
Maison Albar Hotels - Le Vendome,"7 Rue du Helder, 75009, Paris",+33144701208,https://www.travelmyth.com/Paris/Hotels/Maison-Albar-Hotels-Le-Vendome_tmid3220522,48.87176500,2.33477300,5
Le Damantin Hôtel & Spa,"1 Rue Bayard, 75008, Paris",+33153756262,https://www.travelmyth.com/Paris/Hotels/Le-Damantin-Hotel-Spa_tmid2763411,48.86505900,2.30769200,5
Brach Paris,"1-7 Rue Jean Richepin, 75116, Paris",+33144301000,https://www.travelmyth.com/Paris/Hotels/Brach-Paris_tmid2742023,48.86127500,2.27543800,5
Les Jardins du Faubourg Hotel & Spa by Shiseido,"9 Rue d'Aguesseau, 75008, Paris",+33186541515,https://www.travelmyth.com/Paris/Hotels/Les-Jardins-du-Faubourg-Hotel-Spa-by-Shiseido_tmid2460858,48.87024000,2.31935300,5
Maison Bréguet,"8 Rue Breguet, 75011, Paris",+33158303231,https://www.travelmyth.com/Paris/Hotels/Maison-Breguet_tmid1701026,48.85648100,2.37200700,5
Lyric Hotel Paris Opera,"2 rue de Gramont, 75002, Paris",+33183735800,https://www.travelmyth.com/Paris/Hotels/Lyric-Hotel-Paris-Opera_tmid355545,48.86902300,2.33680000,4
Hotel Ducs de Bourgogne,"19 Rue Du Pont-Neuf, 75001, Paris",+33142339564,https://www.travelmyth.com/Paris/Hotels/Hotel-Ducs-de-Bourgogne_tmid224003,48.86026100,2.34417200,4
MARQUIS Faubourg Saint-Honoré Relais & Châteaux,"8 rue d'Anjou, 75008, Paris",+33144800000,https://www.travelmyth.com/Paris/Hotels/MARQUIS-Faubourg-Saint-Honore-Relais-Chateaux_tmid216127,48.86968700,2.32074500,5
Golden Tulip Opera de Noailles,"9, rue de la Michodiere, 75002, Paris",+33147429290,https://www.travelmyth.com/Paris/Hotels/Golden-Tulip-Opera-de-Noailles_tmid126116,48.86960800,2.33467300,4
Franklin Roosevelt,"18 rue Clement Marrot, 75008, Paris",+33153574950,https://www.travelmyth.com/Paris/Hotels/Franklin-Roosevelt_tmid71004,48.86782000,2.30316000,4
Molitor Hôtel & Spa Paris - MGallery Collection,"13, rue Nungesser et Coli, 75016, Paris",+33156070850,https://www.travelmyth.com/Paris/Hotels/Molitor-Hotel-Spa-Paris-MGallery-Collection_tmid470209,48.84528100,2.25546400,5
Hyatt Paris Madeleine,"24, Boulevard Malesherbes, 75008, Paris",+330155271234,https://www.travelmyth.com/Paris/Hotels/Hyatt-Paris-Madeleine_tmid191488,48.87290100,2.32170900,5
Goralska Résidences Hôtel Paris Bastille,"7 Boulevard Bourdon, 75004, Paris",+33142723333,https://www.travelmyth.com/Paris/Hotels/Goralska-Residences-Hotel-Paris-Bastille_tmid1050238,48.84828400,2.36572500,4
Hotel du Petit Moulin,"29-31 rue de Poitou, 75003, Paris",+330142741010,https://www.travelmyth.com/Paris/Hotels/Hotel-du-Petit-Moulin_tmid290156,48.86162200,2.36204800,4
Le A,"4, rue d'Artois, 75008, Paris",+330142569999,https://www.travelmyth.com/Paris/Hotels/Le-A_tmid248314,48.87231200,2.30888000,4
Hôtel Saint-Paul Rive-Gauche,"43, rue Monsieur le Prince, 75006, Paris",+330143269864,https://www.travelmyth.com/Paris/Hotels/Hotel-Saint-Paul-Rive-Gauche_tmid228394,48.84965400,2.34019900,4
Chalgrin Boutique Hotel,"1/3 Rue d'Argentine, 75116, Paris",+330145027676,https://www.travelmyth.com/Paris/Hotels/Chalgrin-Boutique-Hotel_tmid132860,48.87434500,2.28977600,4
Hôtel Napoleon Paris,"40, avenue de Friedland, 75008, Paris",+33156684321,https://www.travelmyth.com/Paris/Hotels/Hotel-Napoleon-Paris_tmid94318,48.87423000,2.29805000,5
Hotel Opéra Richepanse,"14, Rue du Chevalier de Saint George, 75001, Paris",+330142603600,https://www.travelmyth.com/Paris/Hotels/Hotel-Opera-Richepanse_tmid94158,48.86870800,2.32519900,4
Le 12 Hôtel,"12 rue de Vienne, 75008, Paris",+33189891212,https://www.travelmyth.com/Paris/Hotels/Le-12-Hotel_tmid38032,48.87708200,2.32212500,4
Majestic Hotel Spa - Champs Elysées,"30, Rue La Perouse, 75016, Paris",+33145008370,https://www.travelmyth.com/Paris/Hotels/Majestic-Hotel-Spa-Champs-Elysees_tmid32611,48.87038700,2.29379000,5
J.K. Place Paris,"82 Rue de Lille, 75007, Paris",+33698724391,https://www.travelmyth.com/Paris/Hotels/JK-Place-Paris_tmid3338232,48.86118700,2.32162200,5
Hôtel Le Ballu,"30 rue Ballu, 75009, Paris",+33186542121,https://www.travelmyth.com/Paris/Hotels/Hotel-Le-Ballu_tmid3158313,48.88215200,2.32955600,4
Hôtel Saint-Marc,"36 Rue Saint-Marc, 75002, Paris",+33142867272,https://www.travelmyth.com/Paris/Hotels/Hotel-Saint-Marc_tmid1276812,48.87088600,2.33821300,4
Le Cinq Codet,"5 rue Louis Codet, 75007, Paris",+33153851560,https://www.travelmyth.com/Paris/Hotels/Le-Cinq-Codet_tmid621914,48.85501700,2.30840500,5
Hôtel Le Relais des Halles,"26 rue Pierre Lescot, 75001, Paris",+33144826400,https://www.travelmyth.com/Paris/Hotels/Hotel-Le-Relais-des-Halles_tmid332969,48.86316600,2.34887100,4
Hôtel de Joséphine BONAPARTE,"10, rue d'Ormesson , 75004, Paris",,https://www.travelmyth.com/Paris/Hotels/Hotel-de-Josephine-BONAPARTE_tmid240674,48.85550200,2.36205500,4
Hôtel Regina Louvre,"2 place des Pyramides, 75001, Paris",+33142603110,https://www.travelmyth.com/Paris/Hotels/Hotel-Regina-Louvre_tmid184522,48.86384200,2.33241600,5
Hôtel du Rond-point des Champs-Élysées - Esprit de France,"10, Rue de Ponthieu, 75008, Paris",+33153891414,https://www.travelmyth.com/Paris/Hotels/Hotel-du-Rond-point-des-Champs-Elysees-Esprit-de-France_tmid115077,48.87038800,2.31065500,4
Hotel des Académies et des Arts,"15 Rue De La Grande Chaumiere, 75006, Paris",+33143266644,https://www.travelmyth.com/Paris/Hotels/Hotel-des-Academies-et-des-Arts_tmid102568,48.84216500,2.33047800,4
Le Petit Beaumarchais Hotel & Spa Ex Hotel Original,"8, Boulevard Beaumarchais, 75011, Paris",+33147009150,https://www.travelmyth.com/Paris/Hotels/Le-Petit-Beaumarchais-Hotel-Spa-Ex-Hotel-Original_tmid65437,48.85477000,2.36894200,4
Hôtel Bel Ami,"7-11 Rue Saint Benoit, 75006, Paris",+33142615353,https://www.travelmyth.com/Paris/Hotels/Hotel-Bel-Ami_tmid47998,48.85485800,2.33306100,5
Hôtel Les Dames du Panthéon,"19 place du Pantheon, 75005, Paris",+33143543295,https://www.travelmyth.com/Paris/Hotels/Hotel-Les-Dames-du-Pantheon_tmid16748,48.84578900,2.34486500,4
Monsieur George Hotel & Spa - Champs-Elysées,"17 Rue Washington, 75008, Paris",+33187894848,https://www.travelmyth.com/Paris/Hotels/Monsieur-George-Hotel-Spa-Champs-Elysees_tmid3449430,48.87293800,2.30257700,5
Maison Albar Hotels Le Pont-Neuf,"23-25 rue de Pont Neuf, 75001, Paris",+33144889260,https://www.travelmyth.com/Paris/Hotels/Maison-Albar-Hotels-Le-Pont-Neuf_tmid1697916,48.86060200,2.34420400,5
La Villa Haussmann,"132 Boulevard Haussmann, 75008, Paris",+33142652929,https://www.travelmyth.com/Paris/Hotels/La-Villa-Haussmann_tmid1697878,48.87537800,2.31663600,4
Hôtel Baume,"7 rue Casimir Delavigne, 75006, Paris",+33153102850,https://www.travelmyth.com/Paris/Hotels/Hotel-Baume_tmid543563,48.85015700,2.33914100,4
Hôtel La Bourdonnais by Inwood Hotels,"111 avenue de la Bourdonnais, 75007, Paris",+33147054542,https://www.travelmyth.com/Paris/Hotels/Hotel-La-Bourdonnais-by-Inwood-Hotels_tmid541250,48.85498300,2.30447400,4
Hotel de Montesquieu,"8 rue Frederic Bastiat, 75008, Paris",+33142561700,https://www.travelmyth.com/Paris/Hotels/Hotel-de-Montesquieu_tmid399471,48.87282700,2.30727700,4
Hôtel R de Paris - Boutique Hotel,"41 rue de Clichy, 75009, Paris",+33140823620,https://www.travelmyth.com/Paris/Hotels/Hotel-R-de-Paris-Boutique-Hotel_tmid385402,48.87989100,2.32900000,4
Hôtel le Derby Alma by Inwood Hotels,"8, Avenue Rapp, 75007, Paris",+330144187777,https://www.travelmyth.com/Paris/Hotels/Hotel-le-Derby-Alma-by-Inwood-Hotels_tmid234457,48.86038800,2.30074500,4
Platine Hotel,"20 rue de l'Ingenieur Robert Keller, 75015, Paris",+33145711515,https://www.travelmyth.com/Paris/Hotels/Platine-Hotel_tmid203864,48.84741700,2.28325200,4
Hôtel Molière,"21 rue Moliere, 75001, Paris",+33142962201,https://www.travelmyth.com/Paris/Hotels/Hotel-Moliere_tmid182598,48.86542900,2.33631400,4
Hotel Louvre Montana,"12, rue Saint Roch, 75001, Paris",+33142603510,https://www.travelmyth.com/Paris/Hotels/Hotel-Louvre-Montana_tmid147318,48.86444900,2.33173800,4
Hôtel du Ministère,"31 Rue de Surene, 75008, Paris",+33142662143,https://www.travelmyth.com/Paris/Hotels/Hotel-du-Ministere_tmid144838,48.87133900,2.31931800,4
Le Mathurin Hotel & Spa,"43 Rue des Mathurins, 75008, Paris",+330144942094,https://www.travelmyth.com/Paris/Hotels/Le-Mathurin-Hotel-Spa_tmid144546,48.87326500,2.32403200,4
Hotel & Spa La Belle Juliette,"92, Rue Du Cherche Midi, 75006, Paris",+33142229740,https://www.travelmyth.com/Paris/Hotels/Hotel-Spa-La-Belle-Juliette_tmid141642,48.84757500,2.32241500,4
Hôtel La Comtesse,"29, Avenue De Tourville, 75007, Paris",+33145512929,https://www.travelmyth.com/Paris/Hotels/Hotel-La-Comtesse_tmid129923,48.85390600,2.30720700,4
Relais Hôtel du Vieux Paris,"9, rue Git-le-Coeur, 75006, Paris",+33144321590,https://www.travelmyth.com/Paris/Hotels/Relais-Hotel-du-Vieux-Paris_tmid110915,48.85394200,2.34287500,4
Oceania Paris Porte De Versailles,"52 Rue Oradour-sur-Glane, 75015, Paris",+33156090909,https://www.travelmyth.com/Paris/Hotels/Oceania-Paris-Porte-De-Versailles_tmid85450,48.83035800,2.28435300,4
Pullman Paris Centre - Bercy,"1 Rue De Libourne, 75012, Paris",+33144673400,https://www.travelmyth.com/Paris/Hotels/Pullman-Paris-Centre-Bercy_tmid58214,48.83123500,2.38733800,4
Le Pavillon des Lettres,"12 rue des Saussaies, 75008, Paris",+330149242626,https://www.travelmyth.com/Paris/Hotels/Le-Pavillon-des-Lettres_tmid34870,48.87139900,2.31814500,4
La Réserve Paris Hotel & Spa,"42 Avenue Gabriel, 75008, Paris",+33158366060,https://www.travelmyth.com/Paris/Hotels/La-Reserve-Paris-Hotel-Spa_tmid3289533,48.86976300,2.31328500,5
Nolinski Paris,"16 Avenue de l'Opera, 75001, Paris",+33142861010,https://www.travelmyth.com/Paris/Hotels/Nolinski-Paris_tmid1332121,48.86546200,2.33469500,5
Esprit Saint Germain,"22 rue Saint Sulpice, 75006, Paris",+33153105555,https://www.travelmyth.com/Paris/Hotels/Esprit-Saint-Germain_tmid1275510,48.85150000,2.33645100,5
Renaissance Paris Republique Hotel & Spa,"40 Rue Rene Boulanger, 75010, Paris",+33171182095,https://www.travelmyth.com/Paris/Hotels/Renaissance-Paris-Republique-Hotel-Spa_tmid1262366,48.86876100,2.36104200,5
Hôtel Paris Bastille Boutet - MGallery,"22 24 Rue Faidherbe, 75011, Paris",+33140246565,https://www.travelmyth.com/Paris/Hotels/Hotel-Paris-Bastille-Boutet-MGallery_tmid1181657,48.85196900,2.38377100,5
Philéas Lazare & Spa,"24, Rue d'Amsterdam, 75009, Paris",+33142853636,https://www.travelmyth.com/Paris/Hotels/Phileas-Lazare-Spa_tmid585378,48.87685000,2.32698900,4
Hotel de Seze,"16 rue de Seze, 75009, Paris",+33147426912,https://www.travelmyth.com/Paris/Hotels/Hotel-de-Seze_tmid545360,48.87057500,2.32638400,4
"Prince de Galles, a Luxury Collection hotel, Paris","33, avenue George V, 75008, Paris",+330153237777,https://www.travelmyth.com/Paris/Hotels/Prince-de-Galles-a-Luxury-Collection-hotel-Paris_tmid268050,48.86908200,2.30084600,5
Maison Albar Hotels Le Diamond,"4, rue de la Pepiniere, 75008, Paris",+330144700200,https://www.travelmyth.com/Paris/Hotels/Maison-Albar-Hotels-Le-Diamond_tmid249149,48.87526100,2.32339500,5
Hotel & Spa de Latour Maubourg,"150 Rue De Grenelle, 75007, Paris",+33147051616,https://www.travelmyth.com/Paris/Hotels/Hotel-Spa-de-Latour-Maubourg_tmid237644,48.85817500,2.31052700,4
Millésime Hôtel,"15 Rue Jacob, 75006, Paris",+33144079797,https://www.travelmyth.com/Paris/Hotels/Millesime-Hotel_tmid229689,48.85511100,2.33503900,4
Hotel Atmospheres,"29-31, rue des Ecoles, 75005, Paris",+33143265602,https://www.travelmyth.com/Paris/Hotels/Hotel-Atmospheres_tmid208536,48.84862300,2.34819600,4
Hôtel San Régis,"12, Rue Jean Goujon, 75008, Paris",+33144951616,https://www.travelmyth.com/Paris/Hotels/Hotel-San-Regis_tmid204717,48.86644900,2.30853100,5
Rochester Champs Elysees,"92 Rue La Boetie, 75008, Paris",+33156696900,https://www.travelmyth.com/Paris/Hotels/Rochester-Champs-Elysees_tmid203480,48.87239400,2.30932700,4
Victoria Palace Hotel,"6 Rue Blaise Desgoffe, 75006, Paris",+33145497000,https://www.travelmyth.com/Paris/Hotels/Victoria-Palace-Hotel_tmid197725,48.84575600,2.32444700,4
Hotel Sleeping Belle,"234 rue de Bercy, 75012, Paris",+33143437777,https://www.travelmyth.com/Paris/Hotels/Hotel-Sleeping-Belle_tmid137466,48.84664800,2.36986000,4
Hotel Residence Henri IV,"50 rue des Bernardins, 75005, Paris",+33144413181,https://www.travelmyth.com/Paris/Hotels/Hotel-Residence-Henri-IV_tmid136654,48.84816000,2.34904100,4
Castille Paris – Starhotels Collezione,"33 Rue Cambon, 75001, Paris",+33144584458,https://www.travelmyth.com/Paris/Hotels/Castille-Paris-–-Starhotels-Collezione_tmid129872,48.86828000,2.32686800,5
Hidden Hotel,"28 Rue de l'Arc de Triomphe, 75017, Paris",+33140550357,https://www.travelmyth.com/Paris/Hotels/Hidden-Hotel_tmid124220,48.87768200,2.29335900,4
Le Basile Hôtel,"23 rue Godot de Mauroy, 75009, Paris",+33142659954,https://www.travelmyth.com/Paris/Hotels/Le-Basile-Hotel_tmid112154,48.87163400,2.32712200,4
Lord Byron,"5 rue Chateaubriand, 75008, Paris",+33143598998,https://www.travelmyth.com/Paris/Hotels/Lord-Byron_tmid103230,48.87313300,2.30244800,4
Hotel West-End,"7 rue Clement Marot, 75008, Paris",+33147203078,https://www.travelmyth.com/Paris/Hotels/Hotel-West-End_tmid41029,48.86713200,2.30390800,4
Hôtel Raphael,"17, Avenue Kleber, 75016, Paris",+33153643200,https://www.travelmyth.com/Paris/Hotels/Hotel-Raphael_tmid28151,48.87137000,2.29354200,5
Hôtel Jardin de Cluny,"9, Rue du Sommerard, 75005, Paris",+33143542266,https://www.travelmyth.com/Paris/Hotels/Hotel-Jardin-de-Cluny_tmid4529,48.84984100,2.34685600,4
Hôtel Le Walt by Inwood Hotels,"37 Avenue De La Motte Picquet, 75007, Paris",+33145515583,https://www.travelmyth.com/Paris/Hotels/Hotel-Le-Walt-by-Inwood-Hotels_tmid3769,48.85475100,2.30651900,4
"Hotel Indigo Paris - Opera, an IHG Hotel","2 Rue Edouard VII, 75009, Paris",+33144800032,https://www.travelmyth.com/Paris/Hotels/Hotel-Indigo-Paris-Opera-an-IHG-Hotel_tmid613558,48.87044500,2.32922500,4
Ampère,"102 Avenue de Villiers, 75017, Paris",+33144291662,https://www.travelmyth.com/Paris/Hotels/Ampere_tmid220757,48.88475200,2.29965200,4
"Holiday Inn Paris - Gare de Lyon Bastille, an IHG Hotel","11-15 Rue De Lyon, 75012, Paris",+33153022000,https://www.travelmyth.com/Paris/Hotels/Holiday-Inn-Paris-Gare-de-Lyon-Bastille-an-IHG-Hotel_tmid194897,48.84678000,2.37179600,4
Mama Shelter Paris East,"109, Rue De Bagnolet, 75020, Paris",+33143484740,https://www.travelmyth.com/Paris/Hotels/Mama-Shelter-Paris-East_tmid194844,48.85969200,2.40294500,2
Francois 1er,"7 Rue Magellan, 75008, Paris",+33147234404,https://www.travelmyth.com/Paris/Hotels/Francois-1er_tmid187200,48.87024500,2.29988200,4
Hôtel Brighton - Esprit de France,"218 rue de Rivoli, 75001, Paris",+33147036161,https://www.travelmyth.com/Paris/Hotels/Hotel-Brighton-Esprit-de-France_tmid177928,48.86480300,2.32899600,4
Hôtel De Sers Champs Elysées Paris,"41 Avenue Pierre 1er de Serbie, 75008, Paris",+33153237575,https://www.travelmyth.com/Paris/Hotels/Hotel-De-Sers-Champs-Elysees-Paris_tmid165275,48.86819300,2.30048100,5
Hôtel des Arts Montmartre,"5 rue Tholoze, 75018, Paris",+33146063052,https://www.travelmyth.com/Paris/Hotels/Hotel-des-Arts-Montmartre_tmid152553,48.88622400,2.33528100,4
Hôtel Eiffel Saint Charles,"37 Rue Saint Charles, 75015, Paris",+33145796415,https://www.travelmyth.com/Paris/Hotels/Hotel-Eiffel-Saint-Charles_tmid126874,48.84981700,2.28838800,3
Hyatt Regency Paris Etoile,"3 Place du General Koenig, 75017, Paris",+33140681234,https://www.travelmyth.com/Paris/Hotels/Hyatt-Regency-Paris-Etoile_tmid125513,48.88041000,2.28472700,4
Hôtel de la Motte Picquet,"30 avenue de la Motte Picquet, 75007, Paris",+33147050957,https://www.travelmyth.com/Paris/Hotels/Hotel-de-la-Motte-Picquet_tmid94437,48.85562300,2.30722700,3
Renaissance Paris Arc de Triomphe Hotel,"39 Avenue de Wagram, 75017, Paris",+33155375537,https://www.travelmyth.com/Paris/Hotels/Renaissance-Paris-Arc-de-Triomphe-Hotel_tmid39439,48.87699800,2.29714800,5
Sofitel Paris Le Faubourg,"15 Rue Boissy d'Anglas, 75008, Paris",+33144941414,https://www.travelmyth.com/Paris/Hotels/Sofitel-Paris-Le-Faubourg_tmid29465,48.86784800,2.32113300,5
Hotel Prelude Opera,"8, Cite Bergere, 75009, Paris",+33147705296,https://www.travelmyth.com/Paris/Hotels/Hotel-Prelude-Opera_tmid22563,48.87193400,2.34349800,4
Relais Du Louvre,"19, Rue Des Pretres-Saint Germain-L´Auxerrois, 75001, Paris",+33140419642,https://www.travelmyth.com/Paris/Hotels/Relais-Du-Louvre_tmid4742,48.85928400,2.34094900,4
Sinner Paris,"116 Rue du Temple, 75003, Paris",+331158120303,https://www.travelmyth.com/Paris/Hotels/Sinner-Paris_tmid3155414,48.86307800,2.35806000,5
Maison Villeroy,"33 rue Jean Goujon, 75008, Paris",,https://www.travelmyth.com/Paris/Hotels/Maison-Villeroy_tmid3005222,48.86522900,2.30476200,5
Jardins de Mademoiselle Hôtel & Spa,"15 rue mademoiselle, 75015, Paris",+330033156239100,https://www.travelmyth.com/Paris/Hotels/Jardins-de-Mademoiselle-Hotel-Spa_tmid2489929,48.84364300,2.29477000,4
Hôtel National Des Arts et Métiers,"243 rue saint Martin, 75003, Paris",+33180972280,https://www.travelmyth.com/Paris/Hotels/Hotel-National-Des-Arts-et-Metiers_tmid1698511,48.86576100,2.35308400,4
Hôtel Adèle & Jules,"2 - 4bis Cite Rougemont, 75009, Paris",+33148246070,https://www.travelmyth.com/Paris/Hotels/Hotel-Adele-Jules_tmid1274936,48.87219100,2.34529500,4
Hotel Les Bains Paris,"7 Rue Du Bourg L'abbe, 75003, Paris",+33142770707,https://www.travelmyth.com/Paris/Hotels/Hotel-Les-Bains-Paris_tmid1150979,48.86395200,2.35197700,5
Hotel La Lanterne & Spa,"12 rue de la Montagne Sainte Genevieve, 75005, Paris",+33153198839,https://www.travelmyth.com/Paris/Hotels/Hotel-La-Lanterne-Spa_tmid1044084,48.84895700,2.34856900,4
Hotel Dupond-Smith,"2, rue des Guillemites, 75004, Paris",+33142768899,https://www.travelmyth.com/Paris/Hotels/Hotel-Dupond-Smith_tmid509399,48.85796500,2.35716600,5
Hôtel Fabric,"31 rue de la Folie Mericourt, 75011, Paris",+33143572700,https://www.travelmyth.com/Paris/Hotels/Hotel-Fabric_tmid324588,48.86310100,2.37283200,4
PLEY Hotel,"214, rue du Faubourg Saint Honore, 75008, Paris",+33142252627,https://www.travelmyth.com/Paris/Hotels/PLEY-Hotel_tmid253277,48.87559100,2.30409100,4
Le Grey Hotel,"12 rue de Parme, 75009, Paris",+33155319393,https://www.travelmyth.com/Paris/Hotels/Le-Grey-Hotel_tmid239673,48.88133000,2.32741500,4
Hôtel Duc De St-Simon,"14 Rue St-Simon, 75007, Paris",+33144392020,https://www.travelmyth.com/Paris/Hotels/Hotel-Duc-De-St-Simon_tmid217149,48.85603700,2.32370600,4
Hotel Le Friedland,"177 rue du faubourg Saint Honore, 75008, Paris",+330145636465,https://www.travelmyth.com/Paris/Hotels/Hotel-Le-Friedland_tmid215538,48.87509600,2.30487200,4
"Hôtel du Louvre, in The Unbound Collection by Hyatt","Place Andre Malraux, 75001, Paris",+33173111234,https://www.travelmyth.com/Paris/Hotels/Hotel-du-Louvre-in-The-Unbound-Collection-by-Hyatt_tmid205153,48.86300300,2.33566000,5
Hôtel Hor Europe,"160 Rue La Fayette, 75010, Paris",+33140051805,https://www.travelmyth.com/Paris/Hotels/Hotel-Hor-Europe_tmid203100,48.87932900,2.35767200,4
Hotel Louvre Saint-Honoré,"141, rue St Honore, 75001, Paris",+33142962323,https://www.travelmyth.com/Paris/Hotels/Hotel-Louvre-Saint-Honore_tmid194599,48.86175000,2.34072200,4
La Perle,"14 rue des Canettes, 75006, Paris",+33143291010,https://www.travelmyth.com/Paris/Hotels/La-Perle_tmid183529,48.85209800,2.33366100,3
Hotel Malte - Astotel,"63 rue de Richelieu, 75002, Paris",+33144589494,https://www.travelmyth.com/Paris/Hotels/Hotel-Malte-Astotel_tmid182621,48.86716400,2.33752600,4
Golden Tulip Washington Opera,"50, rue de Richelieu, 75001, Paris",+33142966806,https://www.travelmyth.com/Paris/Hotels/Golden-Tulip-Washington-Opera_tmid179932,48.86656200,2.33726400,4
Hôtel des Grands Hommes,"17, place du Pantheon, 75005, Paris",+33146341960,https://www.travelmyth.com/Paris/Hotels/Hotel-des-Grands-Hommes_tmid179382,48.84579300,2.34507900,3
Grand Hotel Francais,"223 Boulevard Voltaire, 75011, Paris",+33143712757,https://www.travelmyth.com/Paris/Hotels/Grand-Hotel-Francais_tmid175303,48.85158500,2.39082700,3
Hotel Le Placide Saint-Germain Des Prés,"6, Rue Saint-Placide, 75006, Paris",+33142843460,https://www.travelmyth.com/Paris/Hotels/Hotel-Le-Placide-Saint-Germain-Des-Pres_tmid160210,48.84996800,2.32433000,4
Hotel Pulitzer Paris,"23, rue du Faubourg Montmartre, 75009, Paris",+33153349810,https://www.travelmyth.com/Paris/Hotels/Hotel-Pulitzer-Paris_tmid148737,48.87320500,2.34291000,4
Hôtel Aiglon,"232 Boulevard Raspail, 75014, Paris",+330143208242,https://www.travelmyth.com/Paris/Hotels/Hotel-Aiglon_tmid133521,48.83971200,2.33017300,4
Chambiges Elysées,"8, rue Chambiges, 75008, Paris",+33144318383,https://www.travelmyth.com/Paris/Hotels/Chambiges-Elysees_tmid126336,48.86686500,2.30384500,4
Bradford Elysées - Astotel,"10 rue Saint-Philippe-du-Roule, 75008, Paris",+330145632020,https://www.travelmyth.com/Paris/Hotels/Bradford-Elysees-Astotel_tmid119774,48.87291300,2.30819100,4
Maison Albar Hotels Le Champs-Elysées,"3 avenue Mac Mahon, 75017, Paris",+33143802300,https://www.travelmyth.com/Paris/Hotels/Maison-Albar-Hotels-Le-Champs-Elysees_tmid113715,48.87541000,2.29454000,5
Hôtel de Lille,"40 rue de Lille, 75007, Paris",+33142612909,https://www.travelmyth.com/Paris/Hotels/Hotel-de-Lille_tmid78681,48.85851000,2.32993600,4
Hilton Paris Opera,"108 Rue Saint-Lazare, 75008, Paris",+33140084474,https://www.travelmyth.com/Paris/Hotels/Hilton-Paris-Opera_tmid72509,48.87556600,2.32552300,4
Hôtel Léopold - Orso Hotels,"225 boulevard Raspail, 75014, Paris",+33143203582,https://www.travelmyth.com/Paris/Hotels/Hotel-Leopold-Orso-Hotels_tmid67492,48.84009400,2.33061700,4
"Terrass"" Hotel","12-14 Rue Joseph De Maistre, 75018, Paris",+33146067285,https://www.travelmyth.com/Paris/Hotels/Terrass-Hotel_tmid40661,48.88650500,2.33307400,4
Le Relais Saint Honoré,"308, rue Saint Honore, 75001, Paris",+33142960606,https://www.travelmyth.com/Paris/Hotels/Le-Relais-Saint-Honore_tmid37874,48.86515600,2.33157100,4
Hotel Yllen Eiffel,"196, rue de Vaugirard, 75015, Paris",+33145676767,https://www.travelmyth.com/Paris/Hotels/Hotel-Yllen-Eiffel_tmid34680,48.84146300,2.30785500,4
Hotel du Collectionneur,"51-57, rue de Courcelles, 75008, Paris",+33158366700,https://www.travelmyth.com/Paris/Hotels/Hotel-du-Collectionneur_tmid31962,48.87698300,2.30697900,5
Hotel Lumen Paris Louvre,"15 Rue Des Pyramides, 75001, Paris",+33144507701,https://www.travelmyth.com/Paris/Hotels/Hotel-Lumen-Paris-Louvre_tmid28838,48.86516000,2.33308300,4
Sofitel Paris Arc De Triomphe,"14 Rue Beaujon, 75008, Paris",+33153895050,https://www.travelmyth.com/Paris/Hotels/Sofitel-Paris-Arc-De-Triomphe_tmid26220,48.87493500,2.30140900,5
Hôtel Saint Germain,"88 Rue du Bac, 75007, Paris",+330149547000,https://www.travelmyth.com/Paris/Hotels/Hotel-Saint-Germain_tmid16740,48.85471600,2.32426000,4
Bonsoir Madame,"65 rue Madame, 75006, Paris",+330145488454,https://www.travelmyth.com/Paris/Hotels/Bonsoir-Madame_tmid12934,48.84691500,2.33164200,4
Bulgari Hotel Paris,"30 Avenue Georges V, 75008, Paris",,https://www.travelmyth.com/Paris/Hotels/Bulgari-Hotel-Paris_tmid4832849,48.86820700,2.30149400,5
Hotel Eiffel Blomet,"78 Rue Blomet, 75015, Paris",+33153687000,https://www.travelmyth.com/Paris/Hotels/Hotel-Eiffel-Blomet_tmid1699034,48.84179000,2.30217600,4
Hotel Splendide Royal Paris - Relais & Châteaux,"18 Rue du Cirque, 75008, Paris",+33143871010,https://www.travelmyth.com/Paris/Hotels/Hotel-Splendide-Royal-Paris-Relais-Chateaux_tmid1697805,48.87097900,2.31541700,5
Hôtel Square Louvois,"12 Rue de Louvois, 75002, Paris",+33186950202,https://www.travelmyth.com/Paris/Hotels/Hotel-Square-Louvois_tmid1395192,48.86841500,2.33687400,4
Hôtel Opéra Liège,"9 Rue De Liege, 75009, Paris",+33153728500,https://www.travelmyth.com/Paris/Hotels/Hotel-Opera-Liege_tmid1193481,48.87959600,2.32855400,4
Hotel Ekta Champs Elysées,"52 Rue Galilee, 75008, Paris",+33153760905,https://www.travelmyth.com/Paris/Hotels/Hotel-Ekta-Champs-Elysees_tmid827239,48.87121100,2.29816300,4
Hôtel Da Vinci & Spa,"25 rue des Saints-Peres, 75006, Paris",+33155354188,https://www.travelmyth.com/Paris/Hotels/Hotel-Da-Vinci-Spa_tmid519419,48.85657500,2.33201200,4
Hôtel Félicien by Elegancia,"21 rue Felicien David, 75016, Paris",+33155740000,https://www.travelmyth.com/Paris/Hotels/Hotel-Felicien-by-Elegancia_tmid314975,48.84929400,2.27426900,4
Les Plumes Hotel,"10 rue Lamartine, 75009, Paris",+33155078800,https://www.travelmyth.com/Paris/Hotels/Les-Plumes-Hotel_tmid308758,48.87657700,2.34316200,4
Hôtel Magellan,"17-19 Rue Jean Baptiste Dumas, 75017, Paris",+33145721020,https://www.travelmyth.com/Paris/Hotels/Hotel-Magellan_tmid233217,48.88342300,2.29252700,3
Hôtel Bleu de Grenelle,"140, Boulevard De Grenelle, 75015, Paris",+33145752654,https://www.travelmyth.com/Paris/Hotels/Hotel-Bleu-de-Grenelle_tmid211545,48.84859900,2.29881300,4
Windsor Opera,"10 Rue Gabriel Laumain, 75010, Paris",+33148009898,https://www.travelmyth.com/Paris/Hotels/Windsor-Opera_tmid185345,48.87344500,2.34867900,4
Villa Marquis Member of Meliá Collection,"35 Rue Jean Goujon, 75008, Paris",+330153936300,https://www.travelmyth.com/Paris/Hotels/Villa-Marquis-Member-of-Melia-Collection_tmid162537,48.86530800,2.30456700,5
Hôtel Wallace - Orso Hotels,"89 Rue Fondary, 75015, Paris",,https://www.travelmyth.com/Paris/Hotels/Hotel-Wallace-Orso-Hotels_tmid162094,48.84609800,2.29848000,4
Hôtel Maxim Folies,"14 Rue Geoffroy Marie, 75009, Paris",+33144836715,https://www.travelmyth.com/Paris/Hotels/Hotel-Maxim-Folies_tmid151419,48.87365200,2.34444100,3
Hotel Royal Saint Honore Paris Louvre,"221, Rue Saint Honore (angle Rue d'Alger), 75001, Paris",+330142603279,https://www.travelmyth.com/Paris/Hotels/Hotel-Royal-Saint-Honore-Paris-Louvre_tmid130328,48.86584000,2.32998900,4
Daunou Opéra,"6 Rue Daunou, 75002, Paris",+33142615782,https://www.travelmyth.com/Paris/Hotels/Daunou-Opera_tmid129420,48.86933300,2.33216900,3
Hôtel Galileo Champs Elysées,"54 rue Galilee, 75008, Paris",+33147206606,https://www.travelmyth.com/Paris/Hotels/Hotel-Galileo-Champs-Elysees_tmid97673,48.87134900,2.29815400,3
Hôtel Duo,"11 Rue Du Temple, 75004, Paris",+33142727222,https://www.travelmyth.com/Paris/Hotels/Hotel-Duo_tmid96070,48.85803500,2.35300700,4
Garden-Elysée,"12 rue Saint-Didier, 75016, Paris",+33147550111,https://www.travelmyth.com/Paris/Hotels/Garden-Elysee_tmid94624,48.86623400,2.28804800,4
Le Marceau Bastille,"13 Rue Jules Cesar, 75012, Paris",+33143431165,https://www.travelmyth.com/Paris/Hotels/Le-Marceau-Bastille_tmid86546,48.84900000,2.36979600,4
Hôtel Parc Saint-Séverin - Esprit de France,"22 Rue de La Parcheminerie, 75005, Paris",+33143543217,https://www.travelmyth.com/Paris/Hotels/Hotel-Parc-Saint-Severin-Esprit-de-France_tmid84300,48.85190000,2.34476600,4
Hotel Villa Nicolo,"3 Rue Nicolo, 75016, Paris",+33142888340,https://www.travelmyth.com/Paris/Hotels/Hotel-Villa-Nicolo_tmid73860,48.85823000,2.28065300,3
"Hotel Litteraire Marcel Ayme, BW Premier Collection","16 Rue Tholoze, 75018, Paris",+33142550506,https://www.travelmyth.com/Paris/Hotels/Hotel-Litteraire-Marcel-Ayme-BW-Premier-Collection_tmid47503,48.88651800,2.33562900,4
Académie Hôtel Saint Germain,"32 rue des Saints Peres, 75007, Paris",+33145498000,https://www.travelmyth.com/Paris/Hotels/Academie-Hotel-Saint-Germain_tmid35699,48.85520000,2.33061600,4
Paris Art Hotel Quartier Latin by Malone,"1, Rue Des Ecoles, 75005, Paris",+33146339362,https://www.travelmyth.com/Paris/Hotels/Paris-Art-Hotel-Quartier-Latin-by-Malone_tmid20644,48.84749300,2.35236600,3
Hôtel Vernet Champs Elysées Paris,"25 Rue Vernet, 75008, Paris",+33144319800,https://www.travelmyth.com/Paris/Hotels/Hotel-Vernet-Champs-Elysees-Paris_tmid7758,48.87201400,2.29795700,5
Le Grand Quartier,"15 Rue de Nancy, 75010, Paris",+33176216161,https://www.travelmyth.com/Paris/Hotels/Le-Grand-Quartier_tmid3264115,48.87224600,2.35850300,4
Trump International New York,"One Central Park West, NY 10023, New York",+12122991000,https://www.travelmyth.com/New-York/Hotels/Trump-International-New-York_tmid261392,40.76909000,-73.98141100,5
The Peninsula New York,"700 Fifth Avenue at 55th Street, NY 10019, New York",+12129562888,https://www.travelmyth.com/New-York/Hotels/The-Peninsula-New-York_tmid3586,40.76168000,-73.97532500,5
Mandarin Oriental New York,"80 Columbus Circle, NY 10023, New York",+12128058800,https://www.travelmyth.com/New-York/Hotels/Mandarin-Oriental-New-York_tmid90606,40.76904400,-73.98287500,5
ModernHaus SoHo,"27 Grand Street, NY 10013, New York",+12124652000,https://www.travelmyth.com/New-York/Hotels/ModernHaus-SoHo_tmid143116,40.72275200,-74.00478900,5
The Dominick Hotel,"246 Spring Street, NY 10013, New York",+12128425500,https://www.travelmyth.com/New-York/Hotels/The-Dominick-Hotel_tmid201963,40.72553000,-74.00560900,5
Hyatt Centric Times Square New York,"135 West 45th Street, NY 10036, New York",+16463641234,https://www.travelmyth.com/New-York/Hotels/Hyatt-Centric-Times-Square-New-York_tmid339681,40.75742900,-73.98412800,4
The Bowery Hotel,"335 Bowery, NY 10003, New York",+12125059100,https://www.travelmyth.com/New-York/Hotels/The-Bowery-Hotel_tmid259054,40.72603700,-73.99164500,5
Residence Inn by Marriott New York Manhattan/Central Park,"1717 Broadway, NY 10019, New York",+12123243773,https://www.travelmyth.com/New-York/Hotels/Residence-Inn-by-Marriott-New-York-Manhattan-Central-Park_tmid341646,40.76409300,-73.98258800,4
The Mark New York,"25 East 77th Street, NY 10075, New York",+12127444300,https://www.travelmyth.com/New-York/Hotels/The-Mark-New-York_tmid188267,40.77533300,-73.96343200,5
Equinox Hotel Hudson Yards New York City,"33 Hudson Yards, NY 10001, New York",+12128129200,https://www.travelmyth.com/New-York/Hotels/Equinox-Hotel-Hudson-Yards-New-York-City_tmid3432897,40.75456000,-74.00241100,5
"The Langham, New York, Fifth Avenue","400 Fifth Avenue, NY 10018, New York",+12126954005,https://www.travelmyth.com/New-York/Hotels/The-Langham-New-York-Fifth-Avenue_tmid222045,40.75019200,-73.98363400,5
The Sherry Netherland,"781 5th Avenue, NY 10022, New York",+12123552800,https://www.travelmyth.com/New-York/Hotels/The-Sherry-Netherland_tmid217089,40.76430500,-73.97253100,5
Gansevoort Meatpacking,"18 9th Avenue, NY 10014, New York",+12122066700,https://www.travelmyth.com/New-York/Hotels/Gansevoort-Meatpacking_tmid208161,40.74002600,-74.00566400,5
Andaz 5th Avenue-a concept by Hyatt,"485 5th Avenue, NY 10017, New York",+12126011234,https://www.travelmyth.com/New-York/Hotels/Andaz-5th-Avenue-a-concept-by-Hyatt_tmid208490,40.75278600,-73.98107900,4
"The Pierre, A Taj Hotel, New York","Two East 61st Street at 5th Avenue, NY 10065, New York",+12128388000,https://www.travelmyth.com/New-York/Hotels/The-Pierre-A-Taj-Hotel-New-York_tmid198373,40.76514400,-73.97136300,5
The Greenwich Hotel,"377 Greenwich Street, NY 10013, New York",+12129418900,https://www.travelmyth.com/New-York/Hotels/The-Greenwich-Hotel_tmid143844,40.71994700,-74.00996100,5
Lotte New York Palace,"455 Madison Avenue, NY 10022, New York",+12128887000,https://www.travelmyth.com/New-York/Hotels/Lotte-New-York-Palace_tmid122627,40.75796600,-73.97491900,5
Loews Regency New York Hotel,"540 Park Avenue, NY 10065, New York",+12127594100,https://www.travelmyth.com/New-York/Hotels/Loews-Regency-New-York-Hotel_tmid267621,40.76445600,-73.96897000,5
Crosby Street Hotel,"79 Crosby Street, NY 10012, New York",,https://www.travelmyth.com/New-York/Hotels/Crosby-Street-Hotel_tmid191205,40.72305400,-73.99742300,5
Bryant Park Hotel,"40 West 40th Street, NY 10018, New York",+12128690100,https://www.travelmyth.com/New-York/Hotels/Bryant-Park-Hotel_tmid134767,40.75293300,-73.98384100,4
Archer Hotel New York,"45 West 38th Street, NY 10018, New York",+12127194100,https://www.travelmyth.com/New-York/Hotels/Archer-Hotel-New-York_tmid385292,40.75206000,-73.98473500,4
"Gild Hall, a Thompson Hotel, part of Hyatt","15 Gold Street, NY 10038, New York",+12122327700,https://www.travelmyth.com/New-York/Hotels/Gild-Hall-a-Thompson-Hotel-part-of-Hyatt_tmid242547,40.70792700,-74.00724400,4
"The Ritz-Carlton New York, Central Park","50 Central Park South, NY 10019, New York",+12123089100,https://www.travelmyth.com/New-York/Hotels/The-Ritz-Carlton-New-York-Central-Park_tmid147016,40.76531500,-73.97601500,5
Four Seasons Hotel New York Downtown,"27 Barclay Street, NY 10007, New York",+16468801999,https://www.travelmyth.com/New-York/Hotels/Four-Seasons-Hotel-New-York-Downtown_tmid1223084,40.71303800,-74.00877700,5
JW Marriott Essex House New York,"160 Central Park South, NY 10019, New York",+12122470300,https://www.travelmyth.com/New-York/Hotels/JW-Marriott-Essex-House-New-York_tmid175858,40.76640700,-73.97837300,5
The Plaza,"Fifth Avenue at Central Park South, NY 10019, New York",+12127593000,https://www.travelmyth.com/New-York/Hotels/The-Plaza_tmid133897,40.76443400,-73.97424600,5
Library Hotel by Library Hotel Collection,"299 Madison Avenue, NY 10017, New York",+12129834500,https://www.travelmyth.com/New-York/Hotels/Library-Hotel-by-Library-Hotel-Collection_tmid68259,40.75211100,-73.97957300,4
Hotel Giraffe by Library Hotel Collection,"365 Park Avenue South At 26th St., NY 10016, New York",+12126857700,https://www.travelmyth.com/New-York/Hotels/Hotel-Giraffe-by-Library-Hotel-Collection_tmid42274,40.74219700,-73.98470400,4
Margaritaville Resort Times Square,"560 7th Avenue, NY 10018, New York",+13322424840,https://www.travelmyth.com/New-York/Hotels/Margaritaville-Resort-Times-Square_tmid3816566,40.75504500,-73.98803100,4
Royalton Park Avenue,"420 Park Avenue South, NY 10016, New York",+12123172900,https://www.travelmyth.com/New-York/Hotels/Royalton-Park-Avenue_tmid35322,40.74387000,-73.98393700,5
Park Lane New York,"36 Central Park South, NY 10019, New York",+12123714000,https://www.travelmyth.com/New-York/Hotels/Park-Lane-New-York_tmid219610,40.76500800,-73.97538400,5
Courtyard New York Manhattan/Times Square,"114 West 40th Street, NY 10018, New York",+12123910088,https://www.travelmyth.com/New-York/Hotels/Courtyard-New-York-Manhattan-Times-Square_tmid187329,40.75400100,-73.98656200,3
"Thompson Central Park New York, part of Hyatt","119 West 56th Street, NY 10019, New York",,https://www.travelmyth.com/New-York/Hotels/Thompson-Central-Park-New-York-part-of-Hyatt_tmid85890,40.76416900,-73.97860100,5
Omni Berkshire Place,"21 East 52nd Street, NY 10022, New York",+12127535800,https://www.travelmyth.com/New-York/Hotels/Omni-Berkshire-Place_tmid45232,40.75934300,-73.97496500,4
"Hotel 50 Bowery, part of JdV by Hyatt","50 Bowery, NY 10013, New York",+12125088000,https://www.travelmyth.com/New-York/Hotels/Hotel-50-Bowery-part-of-JdV-by-Hyatt_tmid1352011,40.71593600,-73.99678900,4
Park Hyatt New York,"153 West 57th Street, NY 10019, New York",+16467741234,https://www.travelmyth.com/New-York/Hotels/Park-Hyatt-New-York_tmid519486,40.76530000,-73.97914000,5
Towers at Lotte New York Palace,"455 Madison Avenue, New York (New York)",+12128887000,https://www.travelmyth.com/New-York/Hotels/Towers-at-Lotte-New-York-Palace_tmid146588,40.75805430,-73.97513956,5
Renaissance New York Midtown Hotel,"218 West 35th Street, NY 10001, New York",+12122390014,https://www.travelmyth.com/New-York/Hotels/Renaissance-New-York-Midtown-Hotel_tmid1048134,40.75162900,-73.99125900,4
New York Marriott Marquis,"1535 Broadway, NY 10036, New York",+12123981900,https://www.travelmyth.com/New-York/Hotels/New-York-Marriott-Marquis_tmid210304,40.75837500,-73.98555900,5
Conrad New York Downtown,"102 North End Avenue, NY 10282, New York",+12129450100,https://www.travelmyth.com/New-York/Hotels/Conrad-New-York-Downtown_tmid48543,40.71505900,-74.01585700,5
1 Hotel Central Park,"1414 Avenue of the Americas, NY 10019, New York",+12127032001,https://www.travelmyth.com/New-York/Hotels/1-Hotel-Central-Park_tmid613493,40.76483200,-73.97682300,5
"The Washington by LuxUrban, Trademark Collection by Wyndham","8 Albany Street, NY 10006, New York",+16468268600,https://www.travelmyth.com/New-York/Hotels/The-Washington-by-LuxUrban-Trademark-Collection-by-Wyndham_tmid173064,40.70925300,-74.01386900,4
Hyatt Centric Wall Street New York,"75 Wall Street, NY 10005, New York",+12125901234,https://www.travelmyth.com/New-York/Hotels/Hyatt-Centric-Wall-Street-New-York_tmid134425,40.70531300,-74.00791600,4
The Chatwal,"130 West 44th Street, NY 10036, New York",+12127646200,https://www.travelmyth.com/New-York/Hotels/The-Chatwal_tmid61969,40.75649000,-73.98458000,5
SIXTY SoHo,"60 Thompson Street, NY 10012, New York",+12124310400,https://www.travelmyth.com/New-York/Hotels/SIXTY-SoHo_tmid20750,40.72395300,-74.00308600,5
"The Beekman, a Thompson Hotel, part of Hyatt","123 Nassau Street, NY 10038, New York",+12122332300,https://www.travelmyth.com/New-York/Hotels/The-Beekman-a-Thompson-Hotel-part-of-Hyatt_tmid1048418,40.71115400,-74.00667600,5
"Le Meridien New York, Central Park by Marriott","120 West 57th Street, NY 10019, New York",+18774565333,https://www.travelmyth.com/New-York/Hotels/Le-Meridien-New-York-Central-Park-by-Marriott_tmid348448,40.76449400,-73.97844700,5
Conrad New York Midtown,"151 West 54th Street, NY 10019 , New York",+12123075000,https://www.travelmyth.com/New-York/Hotels/Conrad-New-York-Midtown_tmid301034,40.76338600,-73.98072700,5
San Carlos Hotel New York,"150 East 50th Street, NY 10022, New York",+12127551800,https://www.travelmyth.com/New-York/Hotels/San-Carlos-Hotel-New-York_tmid257316,40.75618400,-73.97146800,4
33 Seaport Hotel New York,"33 Peck Slip, NY 10038, New York",,https://www.travelmyth.com/New-York/Hotels/33-Seaport-Hotel-New-York_tmid216165,40.70798100,-74.00145200,5
"InterContinental New York Times Square, an IHG Hotel","300 West 44th Street, NY 10036, New York",+12128034500,https://www.travelmyth.com/New-York/Hotels/InterContinental-New-York-Times-Square-an-IHG-Hotel_tmid78111,40.75869600,-73.98936600,4
The St. Regis New York,"Two East 55th Street at Fifth Avenue, NY 10022, New York",+12127534500,https://www.travelmyth.com/New-York/Hotels/The-St-Regis-New-York_tmid53362,40.76140900,-73.97439400,5
The New York EDITION,"5 Madison Avenue, NY 10010, New York",+12124134200,https://www.travelmyth.com/New-York/Hotels/The-New-York-EDITION_tmid905782,40.74112900,-73.98777100,5
Courtyard by Marriott New York Manhattan/Central Park,"1717 Broadway, NY 10019, New York",+12123243773,https://www.travelmyth.com/New-York/Hotels/Courtyard-by-Marriott-New-York-Manhattan-Central-Park_tmid410872,40.76422100,-73.98280500,4
Courtyard by Marriott New York Manhattan/Chelsea,"135 West 30th Street, NY 10001, New York",+12129676000,https://www.travelmyth.com/New-York/Hotels/Courtyard-by-Marriott-New-York-Manhattan-Chelsea_tmid384447,40.74812400,-73.99134100,4
The Fifty Sonesta Select New York,"155 E. 50th Street, NY 10022, New York",+12127515710,https://www.travelmyth.com/New-York/Hotels/The-Fifty-Sonesta-Select-New-York_tmid261238,40.75606600,-73.97109600,4
Four Seasons Hotel New York,"57 East 57th Street, NY 10022, New York",+12127585700,https://www.travelmyth.com/New-York/Hotels/Four-Seasons-Hotel-New-York_tmid230281,40.76224000,-73.97170000,5
Sixty LES,"190 Allen Street, NY 10002, New York",+12124605300,https://www.travelmyth.com/New-York/Hotels/Sixty-LES_tmid223878,40.72203300,-73.98858800,4
WestHouse Hotel New York,"201 West 55th Street, NY 10019, New York",+12127075700,https://www.travelmyth.com/New-York/Hotels/WestHouse-Hotel-New-York_tmid350139,40.76459900,-73.98089000,5
The Gardens Sonesta ES Suites New York,"215 E. 64th Street, NY 10065, New York",+12123551230,https://www.travelmyth.com/New-York/Hotels/The-Gardens-Sonesta-ES-Suites-New-York_tmid153058,40.76436200,-73.96329000,4
The Maritime Hotel,"363 West 16th Street, NY 10011, New York",+12122424300,https://www.travelmyth.com/New-York/Hotels/The-Maritime-Hotel_tmid146265,40.74220800,-74.00396200,4
"Crowne Plaza Times Square Manhattan, an IHG Hotel","1605 Broadway Avenue, NY 10019, New York",+12129774000,https://www.travelmyth.com/New-York/Hotels/Crowne-Plaza-Times-Square-Manhattan-an-IHG-Hotel_tmid128228,40.76048000,-73.98480900,4
Residence Inn by Marriott New York Manhattan/Times Square,"1033 Avenue of the Americas, NY 10018, New York",+12127680007,https://www.travelmyth.com/New-York/Hotels/Residence-Inn-by-Marriott-New-York-Manhattan-Times-Square_tmid10888,40.75288800,-73.98580500,4
Hotel Indigo Lower East Side New York,"171 Ludlow Street, NY 10002, New York",+12122371776,https://www.travelmyth.com/New-York/Hotels/Hotel-Indigo-Lower-East-Side-New-York_tmid616577,40.72172300,-73.98749600,4
The Ludlow Hotel,"180 Ludlow Street, NY 10002, New York",+12124321818,https://www.travelmyth.com/New-York/Hotels/The-Ludlow-Hotel_tmid566792,40.72176100,-73.98721800,4
The Marmara Park Avenue,"114 East 32nd Street, NY 10016, New York",+12126039000,https://www.travelmyth.com/New-York/Hotels/The-Marmara-Park-Avenue_tmid500881,40.74534600,-73.98166800,5
citizenM New York Times Square,"218 West 50th Street, NY 10019, New York",+12124613638,https://www.travelmyth.com/New-York/Hotels/citizenM-New-York-Times-Square_tmid468270,40.76157300,-73.98502200,4
Aloft Harlem,"2296 Frederick Douglas Boulevard, NY 10027, New York",+12127494000,https://www.travelmyth.com/New-York/Hotels/Aloft-Harlem_tmid233561,40.80903700,-73.95160500,4
The Kitano Hotel New York,"66 Park Avenue, NY 10016, New York",+12128857000,https://www.travelmyth.com/New-York/Hotels/The-Kitano-Hotel-New-York_tmid225181,40.74952900,-73.97985200,4
The Times Square EDITION New York,"20 Times Square, 701 7th Avenue at West 47th Street, NY 10036, New York",+12123987017,https://www.travelmyth.com/New-York/Hotels/The-Times-Square-EDITION-New-York_tmid2851808,40.75917500,-73.98431700,5
Merrion Row Hotel and Public House,"119 West 45th Street, NY 10036, New York",+12124614920,https://www.travelmyth.com/New-York/Hotels/Merrion-Row-Hotel-and-Public-House_tmid2300448,40.75728200,-73.98351700,4
LUMA Hotel - Times Square,"120 West 41st Street, NY 10036-7315, New York",+12127300099,https://www.travelmyth.com/New-York/Hotels/LUMA-Hotel-Times-Square_tmid1858864,40.75454600,-73.98570500,4
Baccarat Hotel and Residences New York,"28 West 53rd Street, NY 10019, New York",+12127908800,https://www.travelmyth.com/New-York/Hotels/Baccarat-Hotel-and-Residences-New-York_tmid1100369,40.76082500,-73.97724600,5
"Holiday Inn Manhattan Financial District, an IHG Hotel","99 Washington Street, NY 10006, New York",+12127912900,https://www.travelmyth.com/New-York/Hotels/Holiday-Inn-Manhattan-Financial-District-an-IHG-Hotel_tmid617910,40.70821000,-74.01418000,4
The Broome,"431 Broome Street, NY 10013, New York",+12124312929,https://www.travelmyth.com/New-York/Hotels/The-Broome_tmid384263,40.72135700,-73.99934900,4
Hilton Club The Quin New York,"101 West 57th Street at Sixth Avenue, NY 10019, New York",+12122457846,https://www.travelmyth.com/New-York/Hotels/Hilton-Club-The-Quin-New-York_tmid307841,40.76463500,-73.97749800,5
"Park South Hotel, part of JdV by Hyatt","124 East 28th Street, NY 10016, New York",+12124480888,https://www.travelmyth.com/New-York/Hotels/Park-South-Hotel-part-of-JdV-by-Hyatt_tmid236457,40.74277500,-73.98305400,4
Residence Inn by Marriott New York Manhattan/ Midtown Eastside,"148 East 48th Street, NY 10017, New York",+12129801003,https://www.travelmyth.com/New-York/Hotels/Residence-Inn-by-Marriott-New-York-Manhattan-Midtown-Eastside_tmid206853,40.75482000,-73.97253200,4
"The Carlyle, A Rosewood Hotel","35 East 76th Street, NY 10021, New York",+12127441600,https://www.travelmyth.com/New-York/Hotels/The-Carlyle-A-Rosewood-Hotel_tmid188802,40.77423000,-73.96309000,5
Chambers powered by Sonder,"15 West 56th Street, NY 10019, New York",+12129745656,https://www.travelmyth.com/New-York/Hotels/Chambers-powered-by-Sonder_tmid180542,40.76286600,-73.97559900,4
Casablanca Hotel by Library Hotel Collection,"147 West 43rd Street, NY 10036, New York",+12128691212,https://www.travelmyth.com/New-York/Hotels/Casablanca-Hotel-by-Library-Hotel-Collection_tmid96303,40.75640900,-73.98553600,4
New York Hilton Midtown,"1335 Avenue of Americas, NY 10019, New York",+12125867000,https://www.travelmyth.com/New-York/Hotels/New-York-Hilton-Midtown_tmid92633,40.76214600,-73.97903100,4
Millennium Downtown New York,"55 Church Street, NY 10007, New York",+12126932001,https://www.travelmyth.com/New-York/Hotels/Millennium-Downtown-New-York_tmid76582,40.71119700,-74.01045800,4
Broadway Plaza Hotel,"1155 Broadway, NY 10001, New York",+12126797665,https://www.travelmyth.com/New-York/Hotels/Broadway-Plaza-Hotel_tmid72519,40.74442500,-73.98900400,3
Hotel Beacon,"2130 Broadway, NY 10023, New York",+12127871100,https://www.travelmyth.com/New-York/Hotels/Hotel-Beacon_tmid29957,40.78070800,-73.98123000,4
Park Terrace Hotel,"18 West 40th Street, NY 10018, New York",+12127816400,https://www.travelmyth.com/New-York/Hotels/Park-Terrace-Hotel_tmid2859023,40.75249400,-73.98310800,4
Concorde Hotel New York,"127 East 55th Street, NY 10022, New York",+12123552755,https://www.travelmyth.com/New-York/Hotels/Concorde-Hotel-New-York_tmid2307578,40.76000300,-73.97039900,4
Freehand New York,"23 Lexington Avenue, NY 10010, New York",+12124751920,https://www.travelmyth.com/New-York/Hotels/Freehand-New-York_tmid1859735,40.73983400,-73.98425400,4
The Knickerbocker,"6 Times Square, NY 10036, New York",+12122044980,https://www.travelmyth.com/New-York/Hotels/The-Knickerbocker_tmid856269,40.75558300,-73.98627000,5
NobleDEN Hotel,"196 Grand Street, NY 10013, New York",+12123908988,https://www.travelmyth.com/New-York/Hotels/NobleDEN-Hotel_tmid621433,40.71924600,-73.99689900,4
Homewood Suites Midtown Manhattan Times Square South,"312 West 37th Street, NY 10018, New York",+12122440644,https://www.travelmyth.com/New-York/Hotels/Homewood-Suites-Midtown-Manhattan-Times-Square-South_tmid385291,40.75441100,-73.99305800,3
The Gotham Hotel,"16 East 46th Street, NY 10017, New York",+12124908500,https://www.travelmyth.com/New-York/Hotels/The-Gotham-Hotel_tmid215365,40.75552100,-73.97806400,4
Sofitel New York,"45 West 44th Street, NY 10036, New York",+12123548844,https://www.travelmyth.com/New-York/Hotels/Sofitel-New-York_tmid87211,40.75570300,-73.98193600,4
Washington Square Hotel,"103 Waverly Place, NY 10011, New York",+12127779515,https://www.travelmyth.com/New-York/Hotels/Washington-Square-Hotel_tmid58924,40.73236300,-73.99880700,4
Hotel Elysee by Library Hotel Collection,"60 East 54th Street, NY 10022, New York",+12127531066,https://www.travelmyth.com/New-York/Hotels/Hotel-Elysee-by-Library-Hotel-Collection_tmid38486,40.76001300,-73.97316100,4
M Social Hotel Times Square New York,"226 West 52nd Street, NY 10019, New York",+12123150100,https://www.travelmyth.com/New-York/Hotels/M-Social-Hotel-Times-Square-New-York_tmid16119,40.76280000,-73.98365600,4
Arlo Midtown,"351 West 38th Street, 10018, New York",+12123437000,https://www.travelmyth.com/New-York/Hotels/Arlo-Midtown_tmid3812938,40.75576300,-73.99385900,4
Artezen Hotel,"24 John Street, NY 10038, New York",+12125665511,https://www.travelmyth.com/New-York/Hotels/Artezen-Hotel_tmid2428097,40.70967300,-74.00861500,4
INNSiDE by Meliá New York Nomad,"132 West 27th Street, NY 10001, New York",+12129511000,https://www.travelmyth.com/New-York/Hotels/INNSiDE-by-Melia-New-York-Nomad_tmid1042783,40.74598300,-73.99256900,4
Residence Inn by Marriott New York Downtown Manhattan/World Trade Center Area,"170 Broadway, NY 10007, New York",+12126008900,https://www.travelmyth.com/New-York/Hotels/Residence-Inn-by-Marriott-New-York-Downtown-Manhattan-World-Trade-Center-Area_tmid863953,40.70970000,-74.00985300,4
Hilton Garden Inn New York Manhattan Midtown East,"206 East 52nd Street, NY 10022, New York",+12127946000,https://www.travelmyth.com/New-York/Hotels/Hilton-Garden-Inn-New-York-Manhattan-Midtown-East_tmid467809,40.75674100,-73.96933100,3
World Center Hotel,"144 Washington Street, NY 10006, New York",+16467463509,https://www.travelmyth.com/New-York/Hotels/World-Center-Hotel_tmid249048,40.70981400,-74.01385200,4
"Kimpton Hotel Eventi, an IHG Hotel","851 Avenue of the Americas, NY 10001, New York",+12125644567,https://www.travelmyth.com/New-York/Hotels/Kimpton-Hotel-Eventi-an-IHG-Hotel_tmid183550,40.74721800,-73.98994900,5
Hilton Garden Inn West 35th Street,"63 West 35th Street, NY 10001, New York",+12125943310,https://www.travelmyth.com/New-York/Hotels/Hilton-Garden-Inn-West-35th-Street_tmid177686,40.75029300,-73.98667200,3
"Club Quarters Hotel World Trade Center, New York","140 Washington Street, NY 10006, New York",+16467463400,https://www.travelmyth.com/New-York/Hotels/Club-Quarters-Hotel-World-Trade-Center-New-York_tmid139448,40.70979200,-74.01384100,4
Fitzpatrick Manhattan,"687 Lexington Avenue, NY 10022, New York",+12123550100,https://www.travelmyth.com/New-York/Hotels/Fitzpatrick-Manhattan_tmid128325,40.76055500,-73.96925400,4
Best Western Plus Hospitality House Suites,"145 East 49th Street, NY 10017, New York",+12127538781,https://www.travelmyth.com/New-York/Hotels/Best-Western-Plus-Hospitality-House-Suites_tmid68418,40.75568200,-73.97211000,3
citizenM New York Bowery,"189 Bowery, NY 10002, New York",+12123727274,https://www.travelmyth.com/New-York/Hotels/citizenM-New-York-Bowery_tmid2291366,40.72061900,-73.99347000,4
Renaissance New York Times Square Hotel,"714 Seventh Avenue, NY 10036, New York",+12127657676,https://www.travelmyth.com/New-York/Hotels/Renaissance-New-York-Times-Square-Hotel_tmid260565,40.75972900,-73.98452400,4
Warwick New York,"65 West 54th street, NY 10019, New York",+12122472700,https://www.travelmyth.com/New-York/Hotels/Warwick-New-York_tmid243072,40.76236900,-73.97826600,4
"Martinique New York on Broadway, Curio Collection by Hilton","49 West 32nd Street, NY 10001, New York",+12127363800,https://www.travelmyth.com/New-York/Hotels/Martinique-New-York-on-Broadway-Curio-Collection-by-Hilton_tmid237718,40.74822000,-73.98787700,4
The Standard - East Village,"25 Cooper Square, NY 10003, New York",+12124755700,https://www.travelmyth.com/New-York/Hotels/The-Standard-East-Village_tmid235559,40.72791200,-73.99089200,4
Hilton Club West 57th Street New York,"102 West 57th Street, NY 10019, New York",+12123790103,https://www.travelmyth.com/New-York/Hotels/Hilton-Club-West-57th-Street-New-York_tmid209111,40.76450500,-73.97797800,4
The Westin New York at Times Square,"270 West 43rd Street, NY 10036, New York",+12122012700,https://www.travelmyth.com/New-York/Hotels/The-Westin-New-York-at-Times-Square_tmid197174,40.75779200,-73.98937500,5
"The Jewel Hotel, New York","11 West 51 Street, NY 10019, New York",+12122860550,https://www.travelmyth.com/New-York/Hotels/The-Jewel-Hotel-New-York_tmid161767,40.75975700,-73.97792400,4
Hilton Club New York,"1335 Avenue of the Americas, NY 10019, New York",+16464596500,https://www.travelmyth.com/New-York/Hotels/Hilton-Club-New-York_tmid161658,40.76234900,-73.97901100,4
"Dream Downtown, Part Of Hyatt","355 West 16th Street, NY 10011, New York",+12122292559,https://www.travelmyth.com/New-York/Hotels/Dream-Downtown-Part-Of-Hyatt_tmid137380,40.74202700,-74.00362300,4
Hotel Lucerne,"201 West 79th Street, NY 10024, New York",+12128751000,https://www.travelmyth.com/New-York/Hotels/Hotel-Lucerne_tmid115821,40.78336700,-73.97859700,4
Walker Hotel Greenwich Village,"52 West 13th Steet, NY 10011, New York",+12123751300,https://www.travelmyth.com/New-York/Hotels/Walker-Hotel-Greenwich-Village_tmid113241,40.73628000,-73.99658500,4
New York Marriott Downtown,"85 West Street at Albany Street, NY 10006, New York",+12123854900,https://www.travelmyth.com/New-York/Hotels/New-York-Marriott-Downtown_tmid48567,40.70947800,-74.01459600,4
Hampton Inn Manhattan-35th St Empire State Bldg,"59 West 35th Street, NY 10001, New York",+12125643688,https://www.travelmyth.com/New-York/Hotels/Hampton-Inn-Manhattan-35th-St-Empire-State-Bldg_tmid11744,40.75018300,-73.98645600,3
The Renwick,"118 East 40th Street, NY 10016, New York",+12126874875,https://www.travelmyth.com/New-York/Hotels/The-Renwick_tmid8361,40.75030600,-73.97751400,4
Courtyard New York Manhattan/Midtown West,"461 West 34th Street, NY 10001, New York",+12125533000,https://www.travelmyth.com/New-York/Hotels/Courtyard-New-York-Manhattan-Midtown-West_tmid3350229,40.75471900,-73.99886700,4
Hyatt Place New York/Midtown-South,"52 West 36th Street, NY 10018, New York",+12122399100,https://www.travelmyth.com/New-York/Hotels/Hyatt-Place-New-York-Midtown-South_tmid278569,40.75051000,-73.98577000,4
"The Standard, High Line New York","848 Washington Street, NY 10014, New York",+12126454646,https://www.travelmyth.com/New-York/Hotels/The-Standard-High-Line-New-York_tmid260763,40.74067900,-74.00781200,4
"voco The Franklin New York, an IHG Hotel","164 East 87 Street, NY 10128, New York",+12123691000,https://www.travelmyth.com/New-York/Hotels/voco-The-Franklin-New-York-an-IHG-Hotel_tmid173375,40.77973600,-73.95451200,4
"Club Quarters Hotel Times Square, New York","40 West 45th Street, NY 10036, New York",+12126269390,https://www.travelmyth.com/New-York/Hotels/Club-Quarters-Hotel-Times-Square-New-York_tmid126738,40.75598000,-73.98104800,4
W New York - Times Square,"1567 Broadway, NY 10036, New York",+12129307400,https://www.travelmyth.com/New-York/Hotels/W-New-York-Times-Square_tmid94189,40.75938100,-73.98532700,4
The Mercer,"147 Mercer Street, NY 10012, New York",+12129666060,https://www.travelmyth.com/New-York/Hotels/The-Mercer_tmid54937,40.72486600,-73.99850300,5
Hilton Club The Central at 5th New York,"12 East 48th Street, NY 10017, New York",,https://www.travelmyth.com/New-York/Hotels/Hilton-Club-The-Central-at-5th-New-York_tmid4020183,40.75675500,-73.97733000,4
